
<Log started at 08-08-2022, 09:07:57.558>
09:07:57.593: 🐙 AzimuthSuite v1.0.0.0 
09:07:57.924: Loading settings from AzimuthSuit.settings
09:07:58.025: Current application settings:
09:07:58.028: 
-- UseAUXGNSSCompas: True
-- AUXGNSSCompasBaudrate: baudRate38400
-- IsUseOutputport: False
-- OutPortBaudrate: baudRate9600
-- RemoteAddressToOutput: REM_ADDR_1
-- HeadingAdjust_deg: 0
-- LongitudalOffset_m: 0
-- TransverseOffset_m: 0
-- Salinity_PSU: 0
-- AddressMask: 1
-- MaxDist_m: 500
09:08:10.030: IsActive=True
09:08:10.031: INFO: AZM Starting detection...
09:08:10.045: INFO: Trying COM17 as AZM...
09:08:10.089: INFO: COM17 (AZM) << $PAZM?,0*25
09:08:10.171: INFO: COM17 (AZM) >> $PAZM!,0,1,1F0039001451303338353336,AzimuthB,304,0,0*5E
09:08:10.189: INFO: GNSS Starting detection...
09:08:10.194: INFO: Trying COM17 as GNSS...
09:08:10.464: INFO: AZM detected on COM17
09:08:10.478: INFO: Querying to start polling (AddrMask=1, Salinity=0.0 PSU, MaxDist=500.0 m)
09:08:10.485: INFO: COM17 (AZM) << $PAZM1,1,0.,,500.*03
09:08:10.555: INFO: COM17 (AZM) >> $PAZM1,1,0.0,1500.0,500.0*19
09:08:10.558: INFO: Polling started (AddrMask=1, Salinity=0.0 PSU, SoundSpeed=1500.0 m/s, MaxDist=500.0 m)
09:08:10.858: INFO: COM17 (AZM) >> $PAZM3,0,,,,,,,,,,,1060.64,25.6,,3.2,1.8*39
09:08:11.064: INFO: Trying COM6 as GNSS...
09:08:11.113: INFO: COM6 (GNSS) >> $HEHDT,,T*01
09:08:11.126: INFO: GNSS detected on COM6
09:08:11.209: INFO: COM6 (GNSS) >> $HEHDT,,T*01
09:08:11.305: INFO: COM6 (GNSS) >> $HEHDT,,T*01
09:08:11.416: INFO: COM6 (GNSS) >> $HEHDT,,T*01
09:08:11.512: INFO: COM6 (GNSS) >> $HEHDT,,T*01
09:08:11.609: INFO: COM6 (GNSS) >> $HEHDT,,T*01
09:08:11.704: INFO: COM6 (GNSS) >> $HEHDT,,T*01
09:08:11.768: INFO: COM6 (GNSS) >> $GPGNS,,,,,,N,,,,,,,U*7A
09:08:11.768: INFO: COM6 (GNSS) >> $GNGNS,,,,,,NNN,,,,,,,U*64
09:08:11.784: INFO: COM6 (GNSS) >> $GPRMC,,V,,,,,,,,,,N,U*2A
09:08:11.784: INFO: COM6 (GNSS) >> $GPHEV,,*4C
09:08:11.816: INFO: COM6 (GNSS) >> $HEHDT,,T*01
09:08:11.816: INFO: COM6 (GNSS) >> $HEROT,,V*12
09:08:11.866: INFO: COM17 (AZM) >> $PAZM3,0,,,,,,,,,,,1059.93,25.6,,2.8,1.7*3F
09:08:11.912: INFO: COM6 (GNSS) >> $HEHDT,,T*01
09:08:12.008: INFO: COM6 (GNSS) >> $HEHDT,,T*01
09:08:12.104: INFO: COM6 (GNSS) >> $HEHDT,,T*01
09:08:12.216: INFO: COM6 (GNSS) >> $HEHDT,,T*01
09:08:12.217: INFO: COM17 (AZM) >> $PAZM3,2,0,0,,,,,,,,,1062.24,25.6,,2.3,1.0*35
09:08:12.312: INFO: COM6 (GNSS) >> $HEHDT,,T*01
09:08:12.408: INFO: COM6 (GNSS) >> $HEHDT,,T*01
09:08:12.521: INFO: COM6 (GNSS) >> $HEHDT,,T*01
09:08:12.616: INFO: COM6 (GNSS) >> $HEHDT,,T*01
09:08:12.712: INFO: COM6 (GNSS) >> $HEHDT,,T*01
09:09:00.248: INFO: COM6 (GNSS) >> $GPGNS,060901.00,4830.0876015,N,04433.2371853,E,A,17,0.7,-1.290,3.763,,,S*6A
09:09:00.248: INFO: COM6 (GNSS) >> $GPGNS,060901.00,,,,,,9,,,,,,S*2B
09:09:00.248: INFO: COM6 (GNSS) >> $GNGNS,060901.00,4830.0876015,N,04433.2371853,E,AAA,17,0.7,-1.290,3.763,,,S*74
09:09:00.279: INFO: COM6 (GNSS) >> $GLGNS,060901.00,,,,,,1,,,,,,S*3F
09:09:00.279: INFO: COM6 (GNSS) >> $GAGNS,060901.00,,,,,,2,,,,,,S*31
09:09:00.310: INFO: COM6 (GNSS) >> $GPRMC,060901.00,A,4830.0876015,N,04433.2371853,E,0.35,331.46,080822,9.6,E,A,S*45
09:09:00.310: INFO: COM6 (GNSS) >> $GPHEV,1.06,*55
09:09:00.310: INFO: COM6 (GNSS) >> $HEHDT,348.61,T*17
09:09:00.406: INFO: COM6 (GNSS) >> $HEHDT,348.28,T*1A
09:09:00.444: INFO: COM17 (AZM) >> $PAZM3,2,0,0,,,,,,,,,1061.00,25.6,,2.3,1.6*36
09:09:00.502: INFO: COM6 (GNSS) >> $HEHDT,347.98,T*1E
09:09:00.598: INFO: COM6 (GNSS) >> $HEHDT,347.76,T*1E
09:09:00.694: INFO: COM6 (GNSS) >> $HEHDT,347.57,T*1D
09:09:00.807: INFO: COM6 (GNSS) >> $HEHDT,347.42,T*19
09:09:00.902: INFO: COM6 (GNSS) >> $HEHDT,347.24,T*19
09:09:00.998: INFO: COM6 (GNSS) >> $HEHDT,347.08,T*17
09:09:01.094: INFO: COM6 (GNSS) >> $HEHDT,346.87,T*11
09:09:01.206: INFO: COM6 (GNSS) >> $HEHDT,346.71,T*18
09:09:01.207: INFO: COM6 (GNSS) >> $HEROT,-93.7,A*3B
09:09:01.237: INFO: COM6 (GNSS) >> $GPGNS,060902.00,4830.0876975,N,04433.2371063,E,A,17,0.7,-1.284,3.763,,,S*68
09:09:01.269: INFO: COM6 (GNSS) >> $GPGNS,060902.00,,,,,,9,,,,,,S*28
09:09:01.268: INFO: COM6 (GNSS) >> $GNGNS,060902.00,4830.0876975,N,04433.2371063,E,AAA,17,0.7,-1.284,3.763,,,S*76
09:09:01.269: INFO: COM6 (GNSS) >> $GAGNS,060902.00,,,,,,2,,,,,,S*32
09:09:01.269: INFO: COM6 (GNSS) >> $GLGNS,060902.00,,,,,,1,,,,,,S*3C
09:09:01.299: INFO: COM6 (GNSS) >> $GPRMC,060902.00,A,4830.0876975,N,04433.2371063,E,0.40,335.31,080822,9.6,E,A,S*44
09:09:01.300: INFO: COM6 (GNSS) >> $HEHDT,346.53,T*18
09:09:01.300: INFO: COM6 (GNSS) >> $GPHEV,1.00,*53
09:09:01.395: INFO: COM6 (GNSS) >> $HEHDT,346.34,T*19
09:09:01.507: INFO: COM6 (GNSS) >> $HEHDT,346.05,T*1B
09:09:01.531: INFO: COM17 (AZM) >> $PAZM3,0,0,0,509,20.1,0.053300,79.9,,,271.8,-2.0,1061.02,25.6,,6.3,4.1
09:09:01.603: INFO: COM6 (GNSS) >> $HEHDT,345.77,T*1D
09:09:01.699: INFO: COM6 (GNSS) >> $HEHDT,345.45,T*1C
09:09:01.795: INFO: COM6 (GNSS) >> $HEHDT,345.17,T*1B
09:09:01.907: INFO: COM6 (GNSS) >> $HEHDT,344.95,T*10
09:09:02.003: INFO: COM6 (GNSS) >> $HEHDT,344.73,T*18
09:09:02.099: INFO: COM6 (GNSS) >> $HEHDT,344.50,T*19
09:09:02.195: INFO: COM6 (GNSS) >> $HEHDT,344.29,T*17
09:09:02.211: INFO: COM6 (GNSS) >> $HEROT,-129.8,A*04
09:09:02.227: INFO: COM6 (GNSS) >> $GPGNS,060903.00,4830.0877890,N,04433.2370326,E,A,17,0.7,-1.262,3.763,,,S*69
09:09:02.258: INFO: COM6 (GNSS) >> $GNGNS,060903.00,4830.0877890,N,04433.2370326,E,AAA,17,0.7,-1.262,3.763,,,S*77
09:09:02.258: INFO: COM6 (GNSS) >> $GLGNS,060903.00,,,,,,1,,,,,,S*3D
09:09:02.258: INFO: COM6 (GNSS) >> $GPGNS,060903.00,,,,,,9,,,,,,S*29
09:09:02.289: INFO: COM6 (GNSS) >> $GAGNS,060903.00,,,,,,2,,,,,,S*33
09:09:02.289: INFO: COM6 (GNSS) >> $GPRMC,060903.00,A,4830.0877890,N,04433.2370326,E,0.39,333.65,080822,9.6,E,A,S*44
09:09:02.305: INFO: COM6 (GNSS) >> $GPHEV,0.97,*5C
09:09:02.305: INFO: COM6 (GNSS) >> $HEHDT,344.07,T*1B
09:09:02.315: INFO: COM17 (AZM) >> $PAZM3,1,0,0,0,19.1,-0.000125,-0.1,,0.0,86.0,90.0,1063.27,25.6,,4.8,3.2
09:09:02.401: INFO: COM6 (GNSS) >> $HEHDT,343.90,T*12
09:09:02.497: INFO: COM6 (GNSS) >> $HEHDT,343.73,T*1F
09:09:02.594: INFO: COM6 (GNSS) >> $HEHDT,343.46,T*19
09:09:02.705: INFO: COM6 (GNSS) >> $HEHDT,343.28,T*11
09:09:02.801: INFO: COM6 (GNSS) >> $HEHDT,343.04,T*1F
09:09:02.897: INFO: COM6 (GNSS) >> $HEHDT,342.79,T*14
09:09:02.993: INFO: COM6 (GNSS) >> $HEHDT,342.58,T*17
09:09:03.099: INFO: COM17 (AZM) >> $PAZM3,1,0,0,0,18.9,-0.002062,-3.0,,0.0,86.0,90.0,1060.34,25.6,,3.4,3.3
09:09:03.105: INFO: COM6 (GNSS) >> $HEHDT,342.34,T*1D
09:09:03.201: INFO: COM6 (GNSS) >> $HEHDT,342.11,T*1A
09:09:03.201: INFO: COM6 (GNSS) >> $HEROT,-121.5,A*01
09:09:03.232: INFO: COM6 (GNSS) >> $GPGNS,060904.00,4830.0878787,N,04433.2369604,E,A,17,0.7,-1.242,3.763,,,S*67
09:09:03.263: INFO: COM6 (GNSS) >> $GPGNS,060904.00,,,,,,9,,,,,,S*2E
09:09:03.263: INFO: COM6 (GNSS) >> $GNGNS,060904.00,4830.0878787,N,04433.2369604,E,AAA,17,0.7,-1.242,3.763,,,S*79
09:09:03.263: INFO: COM6 (GNSS) >> $GLGNS,060904.00,,,,,,1,,,,,,S*3A
09:09:03.294: INFO: COM6 (GNSS) >> $GAGNS,060904.00,,,,,,2,,,,,,S*34
09:09:03.294: INFO: COM6 (GNSS) >> $GPHEV,0.94,*5F
09:09:03.294: INFO: COM6 (GNSS) >> $GPRMC,060904.00,A,4830.0878787,N,04433.2369604,E,0.36,332.38,080822,9.6,E,A,S*4E
09:09:03.310: INFO: COM6 (GNSS) >> $HEHDT,341.83,T*12
09:09:03.406: INFO: COM6 (GNSS) >> $HEHDT,341.50,T*1C
09:09:03.502: INFO: COM6 (GNSS) >> $HEHDT,341.24,T*1F
09:09:03.598: INFO: COM6 (GNSS) >> $HEHDT,340.98,T*19
09:09:03.694: INFO: COM6 (GNSS) >> $HEHDT,340.78,T*17
09:09:03.806: INFO: COM6 (GNSS) >> $HEHDT,340.52,T*1F
09:09:03.867: INFO: COM17 (AZM) >> $PAZM3,1,0,0,0,16.5,-0.001212,-1.8,,0.0,274.0,90.0,1061.16,25.6,,2.6,1.8
09:09:03.902: INFO: COM6 (GNSS) >> $HEHDT,340.23,T*19
09:09:03.997: INFO: COM6 (GNSS) >> $HEHDT,339.93,T*1C
09:09:04.094: INFO: COM6 (GNSS) >> $HEHDT,339.62,T*12
09:09:04.221: INFO: COM6 (GNSS) >> $HEHDT,339.35,T*10
09:09:04.221: INFO: COM6 (GNSS) >> $HEROT,-148.0,A*0B
09:09:04.221: INFO: COM6 (GNSS) >> $GPGNS,060905.00,4830.0879681,N,04433.2369017,E,A,17,0.7,-1.235,3.763,,,S*64
09:09:04.252: INFO: COM6 (GNSS) >> $GNGNS,060905.00,4830.0879681,N,04433.2369017,E,AAA,17,0.7,-1.235,3.763,,,S*7A
09:09:04.252: INFO: COM6 (GNSS) >> $GPGNS,060905.00,,,,,,9,,,,,,S*2F
09:09:04.283: INFO: COM6 (GNSS) >> $GLGNS,060905.00,,,,,,1,,,,,,S*3B
09:09:04.283: INFO: COM6 (GNSS) >> $GAGNS,060905.00,,,,,,2,,,,,,S*35
09:09:04.299: INFO: COM6 (GNSS) >> $GPHEV,0.90,*5B
09:09:04.299: INFO: COM6 (GNSS) >> $GPRMC,060905.00,A,4830.0879681,N,04433.2369017,E,0.33,340.46,080822,9.6,E,A,S*44
09:09:04.299: INFO: COM6 (GNSS) >> $HEHDT,339.03,T*15
09:09:04.395: INFO: COM6 (GNSS) >> $HEHDT,338.75,T*15
09:09:04.507: INFO: COM6 (GNSS) >> $HEHDT,338.46,T*15
09:09:04.603: INFO: COM6 (GNSS) >> $HEHDT,338.15,T*13
09:09:04.651: INFO: COM17 (AZM) >> $PAZM3,1,0,0,0,17.3,-0.001162,-1.7,,0.0,85.5,90.0,1061.58,25.6,,2.0,1.8
09:09:04.699: INFO: COM6 (GNSS) >> $HEHDT,337.76,T*19
09:09:04.794: INFO: COM6 (GNSS) >> $HEHDT,337.42,T*1E
09:09:04.906: INFO: COM6 (GNSS) >> $HEHDT,337.05,T*1D
09:09:05.003: INFO: COM6 (GNSS) >> $HEHDT,336.84,T*15
09:09:05.099: INFO: COM6 (GNSS) >> $HEHDT,336.56,T*1A
09:09:05.195: INFO: COM6 (GNSS) >> $HEHDT,336.33,T*19
09:09:05.226: INFO: COM6 (GNSS) >> $HEROT,-160.6,A*07
09:09:05.226: INFO: COM6 (GNSS) >> $GPGNS,060906.00,4830.0880562,N,04433.2368575,E,A,18,0.7,-1.233,3.763,,,S*66
09:09:05.257: INFO: COM6 (GNSS) >> $GPGNS,060906.00,,,,,,9,,,,,,S*2C
09:09:05.257: INFO: COM6 (GNSS) >> $GNGNS,060906.00,4830.0880562,N,04433.2368575,E,AAA,18,0.7,-1.233,3.763,,,S*78
09:09:05.288: INFO: COM6 (GNSS) >> $GLGNS,060906.00,,,,,,1,,,,,,S*38
09:09:05.288: INFO: COM6 (GNSS) >> $GAGNS,060906.00,,,,,,3,,,,,,S*37
09:09:05.304: INFO: COM6 (GNSS) >> $GPRMC,060906.00,A,4830.0880562,N,04433.2368575,E,0.31,345.91,080822,9.6,E,A,S*42
09:09:05.304: INFO: COM6 (GNSS) >> $GPHEV,0.86,*5C
09:09:05.304: INFO: COM6 (GNSS) >> $HEHDT,336.03,T*1A
09:09:05.400: INFO: COM6 (GNSS) >> $HEHDT,335.72,T*1F
09:09:05.419: INFO: COM17 (AZM) >> $PAZM3,1,0,0,0,20.3,-0.002212,-3.3,,0.0,86.5,90.0,1062.16,25.6,,2.3,1.8
09:09:05.496: INFO: COM6 (GNSS) >> $HEHDT,335.42,T*1C
09:09:05.607: INFO: COM6 (GNSS) >> $HEHDT,335.17,T*1C
09:09:05.704: INFO: COM6 (GNSS) >> $HEHDT,334.89,T*1A
09:09:05.800: INFO: COM6 (GNSS) >> $HEHDT,334.59,T*17
09:09:05.896: INFO: COM6 (GNSS) >> $HEHDT,334.32,T*1A
09:09:06.007: INFO: COM6 (GNSS) >> $HEHDT,334.06,T*1D
09:09:06.104: INFO: COM6 (GNSS) >> $HEHDT,333.77,T*1C
09:09:06.199: INFO: COM6 (GNSS) >> $HEHDT,333.56,T*1F
09:09:06.200: INFO: COM6 (GNSS) >> $HEROT,-169.0,A*08
09:09:06.202: INFO: COM17 (AZM) >> $PAZM3,1,0,0,0,20.6,-0.001112,-1.6,,0.0,86.5,90.0,1061.09,25.6,,-1.5,1.4
09:09:06.246: INFO: COM6 (GNSS) >> $GPGNS,060907.00,4830.0881395,N,04433.2368325,E,A,18,0.7,-1.279,3.763,,,S*65
09:09:06.246: INFO: COM6 (GNSS) >> $GNGNS,060907.00,4830.0881395,N,04433.2368325,E,AAA,18,0.7,-1.279,3.763,,,S*7B
09:09:06.277: INFO: COM6 (GNSS) >> $GPGNS,060907.00,,,,,,9,,,,,,S*2D
09:09:06.277: INFO: COM6 (GNSS) >> $GLGNS,060907.00,,,,,,1,,,,,,S*39
09:09:06.277: INFO: COM6 (GNSS) >> $GAGNS,060907.00,,,,,,3,,,,,,S*36
09:09:06.308: INFO: COM6 (GNSS) >> $GPRMC,060907.00,A,4830.0881395,N,04433.2368325,E,0.22,350.01,080822,9.6,E,A,S*40
09:09:06.308: INFO: COM6 (GNSS) >> $GPHEV,0.77,*52
09:09:06.308: INFO: COM6 (GNSS) >> $HEHDT,333.47,T*1F
09:09:06.404: INFO: COM6 (GNSS) >> $HEHDT,333.29,T*17
09:09:06.500: INFO: COM6 (GNSS) >> $HEHDT,333.20,T*1E
09:09:06.597: INFO: COM6 (GNSS) >> $HEHDT,333.08,T*14
09:09:06.692: INFO: COM6 (GNSS) >> $HEHDT,333.02,T*1E
09:09:06.805: INFO: COM6 (GNSS) >> $HEHDT,332.86,T*13
09:09:06.900: INFO: COM6 (GNSS) >> $HEHDT,332.74,T*1E
09:09:06.986: INFO: COM17 (AZM) >> $PAZM3,1,0,0,0,19.9,-0.002187,-3.2,,0.0,86.5,90.0,1061.21,25.6,,4.0,-0.6
09:09:06.996: INFO: COM6 (GNSS) >> $HEHDT,332.59,T*11
09:09:07.108: INFO: COM6 (GNSS) >> $HEHDT,332.44,T*1D
09:09:07.205: INFO: COM6 (GNSS) >> $HEHDT,332.44,T*1D
09:09:07.205: INFO: COM6 (GNSS) >> $HEROT,-118.0,A*0E
09:09:07.236: INFO: COM6 (GNSS) >> $GPGNS,060908.00,4830.0882310,N,04433.2368405,E,A,18,0.7,-1.325,3.763,,,S*69
09:09:07.267: INFO: COM6 (GNSS) >> $GNGNS,060908.00,4830.0882310,N,04433.2368405,E,AAA,18,0.7,-1.325,3.763,,,S*77
09:09:07.267: INFO: COM6 (GNSS) >> $GPGNS,060908.00,,,,,,9,,,,,,S*22
09:09:07.267: INFO: COM6 (GNSS) >> $GLGNS,060908.00,,,,,,1,,,,,,S*36
09:09:07.267: INFO: COM6 (GNSS) >> $GAGNS,060908.00,,,,,,3,,,,,,S*39
09:09:07.297: INFO: COM6 (GNSS) >> $GPRMC,060908.00,A,4830.0882310,N,04433.2368405,E,0.24,20.93,080822,9.6,E,A,S*7D
09:09:07.298: INFO: COM6 (GNSS) >> $GPHEV,0.69,*5D
09:09:07.298: INFO: COM6 (GNSS) >> $HEHDT,332.40,T*19
09:09:07.393: INFO: COM6 (GNSS) >> $HEHDT,332.31,T*1F
09:09:07.505: INFO: COM6 (GNSS) >> $HEHDT,332.18,T*14
09:09:07.602: INFO: COM6 (GNSS) >> $HEHDT,332.12,T*1E
09:09:07.698: INFO: COM6 (GNSS) >> $HEHDT,332.01,T*1C
09:09:07.754: INFO: COM17 (AZM) >> $PAZM3,1,0,0,0,30.8,-0.002737,-4.1,,0.0,272.0,90.0,1061.12,25.6,,3.8,-0.7
09:09:07.793: INFO: COM6 (GNSS) >> $HEHDT,331.99,T*1E
09:09:07.905: INFO: COM6 (GNSS) >> $HEHDT,331.96,T*11
09:09:08.001: INFO: COM6 (GNSS) >> $HEHDT,331.94,T*13
09:09:08.097: INFO: COM6 (GNSS) >> $HEHDT,331.98,T*1F
09:09:08.193: INFO: COM6 (GNSS) >> $HEHDT,331.97,T*10
09:09:08.209: INFO: COM6 (GNSS) >> $HEROT,-73.6,A*34
09:09:08.240: INFO: COM6 (GNSS) >> $GNGNS,060909.00,4830.0883129,N,04433.2368455,E,AAA,18,0.7,-1.298,3.763,,,S*7D
09:09:08.240: INFO: COM6 (GNSS) >> $GPGNS,060909.00,4830.0883129,N,04433.2368455,E,A,18,0.7,-1.298,3.763,,,S*63
09:09:08.271: INFO: COM6 (GNSS) >> $GPGNS,060909.00,,,,,,9,,,,,,S*23
09:09:08.271: INFO: COM6 (GNSS) >> $GLGNS,060909.00,,,,,,1,,,,,,S*37
09:09:08.271: INFO: COM6 (GNSS) >> $GAGNS,060909.00,,,,,,3,,,,,,S*38
09:09:08.302: INFO: COM6 (GNSS) >> $GPRMC,060909.00,A,4830.0883129,N,04433.2368455,E,0.29,16.74,080822,9.6,E,A,S*71
09:09:08.302: INFO: COM6 (GNSS) >> $GPHEV,0.68,*5C
09:09:08.302: INFO: COM6 (GNSS) >> $HEHDT,331.99,T*1E
09:09:08.398: INFO: COM6 (GNSS) >> $HEHDT,332.00,T*1D
09:09:08.494: INFO: COM6 (GNSS) >> $HEHDT,332.03,T*1E
09:09:08.538: INFO: COM17 (AZM) >> $PAZM3,1,0,0,0,18.7,-0.001175,-1.7,,0.0,87.0,90.0,1061.21,25.6,,3.7,-2.3
09:09:08.606: INFO: COM6 (GNSS) >> $HEHDT,332.07,T*1A
09:09:08.702: INFO: COM6 (GNSS) >> $HEHDT,332.14,T*18
09:09:08.798: INFO: COM6 (GNSS) >> $HEHDT,332.13,T*1F
09:09:08.894: INFO: COM6 (GNSS) >> $HEHDT,332.20,T*1F
09:09:09.006: INFO: COM6 (GNSS) >> $HEHDT,332.23,T*1C
09:09:09.102: INFO: COM6 (GNSS) >> $HEHDT,332.30,T*1E
09:09:09.198: INFO: COM6 (GNSS) >> $HEROT,-51.2,A*30
09:09:09.198: INFO: COM6 (GNSS) >> $HEHDT,332.22,T*1D
09:09:09.230: INFO: COM6 (GNSS) >> $GPGNS,060910.00,4830.0883841,N,04433.2368393,E,A,19,0.6,-1.219,3.763,,,S*68
09:09:09.261: INFO: COM6 (GNSS) >> $GNGNS,060910.00,4830.0883841,N,04433.2368393,E,AAA,19,0.6,-1.219,3.763,,,S*76
09:09:09.261: INFO: COM6 (GNSS) >> $GPGNS,060910.00,,,,,,9,,,,,,S*2B
09:09:09.261: INFO: COM6 (GNSS) >> $GLGNS,060910.00,,,,,,1,,,,,,S*3F
09:09:09.292: INFO: COM6 (GNSS) >> $GAGNS,060910.00,,,,,,4,,,,,,S*37
09:09:09.292: INFO: COM6 (GNSS) >> $GPHEV,0.72,*57
09:09:09.292: INFO: COM6 (GNSS) >> $GPRMC,060910.00,A,4830.0883841,N,04433.2368393,E,0.26,8.34,080822,9.6,E,A,S*47
09:09:09.308: INFO: COM6 (GNSS) >> $HEHDT,332.25,T*1A
09:09:09.321: INFO: COM17 (AZM) >> $PAZM3,1,0,0,0,20.3,-0.002087,-3.1,,0.0,68.1,90.0,1060.93,25.6,,6.1,-0.3
09:09:09.404: INFO: COM6 (GNSS) >> $HEHDT,332.22,T*1D
09:09:09.500: INFO: COM6 (GNSS) >> $HEHDT,332.09,T*14
09:09:09.596: INFO: COM6 (GNSS) >> $HEHDT,331.96,T*11
09:09:09.708: INFO: COM6 (GNSS) >> $HEHDT,331.95,T*12
09:09:09.804: INFO: COM6 (GNSS) >> $HEHDT,331.87,T*11
09:09:09.900: INFO: COM6 (GNSS) >> $HEHDT,331.86,T*10
09:09:09.996: INFO: COM6 (GNSS) >> $HEHDT,331.92,T*15
09:09:10.089: INFO: COM17 (AZM) >> $PAZM3,1,0,0,0,18.7,-0.002600,-3.9,,0.0,88.0,90.0,1061.02,25.6,,1.9,1.8
09:09:10.108: INFO: COM6 (GNSS) >> $HEHDT,331.97,T*10
09:09:10.204: INFO: COM6 (GNSS) >> $HEHDT,332.01,T*1C
09:09:10.204: INFO: COM6 (GNSS) >> $HEROT,-19.0,A*3E
09:09:10.235: INFO: COM6 (GNSS) >> $GPGNS,060911.00,4830.0884488,N,04433.2368545,E,A,24,0.6,-1.113,3.763,,,S*6D
09:09:10.265: INFO: COM6 (GNSS) >> $GPGNS,060911.00,,,,,,9,,,,,,S*2A
09:09:10.265: INFO: COM6 (GNSS) >> $GNGNS,060911.00,4830.0884488,N,04433.2368545,E,AAA,24,0.6,-1.113,3.763,,,S*73
09:09:10.265: INFO: COM6 (GNSS) >> $GLGNS,060911.00,,,,,,6,,,,,,S*39
09:09:10.296: INFO: COM6 (GNSS) >> $GPHEV,0.79,*5C
09:09:10.296: INFO: COM6 (GNSS) >> $GAGNS,060911.00,,,,,,4,,,,,,S*36
09:09:10.296: INFO: COM6 (GNSS) >> $GPRMC,060911.00,A,4830.0884488,N,04433.2368545,E,0.18,10.74,080822,9.6,E,A,S*75
09:09:10.312: INFO: COM6 (GNSS) >> $HEHDT,332.00,T*1D
09:09:10.393: INFO: COM6 (GNSS) >> $HEHDT,332.10,T*1C
09:09:10.504: INFO: COM6 (GNSS) >> $HEHDT,332.14,T*18
09:09:10.601: INFO: COM6 (GNSS) >> $HEHDT,332.16,T*1A
09:09:10.697: INFO: COM6 (GNSS) >> $HEHDT,332.24,T*1B
09:09:10.793: INFO: COM6 (GNSS) >> $HEHDT,332.31,T*1F
09:09:10.906: INFO: COM6 (GNSS) >> $HEHDT,332.44,T*1D
09:09:10.921: INFO: COM17 (AZM) >> $PAZM3,1,0,0,0,15.9,-0.001175,-1.7,,0.0,183.5,90.0,1063.27,25.6,,2.4,1.2
09:09:11.001: INFO: COM6 (GNSS) >> $HEHDT,332.48,T*11
09:09:11.097: INFO: COM6 (GNSS) >> $HEHDT,332.51,T*19
09:09:11.193: INFO: COM6 (GNSS) >> $HEHDT,332.54,T*1C
09:09:11.224: INFO: COM6 (GNSS) >> $HEROT,-9.1,A*0E
09:09:11.224: INFO: COM6 (GNSS) >> $GPGNS,060912.00,4830.0885171,N,04433.2368762,E,A,24,0.6,-0.987,3.763,,,S*6F
09:09:11.254: INFO: COM6 (GNSS) >> $GPGNS,060912.00,,,,,,9,,,,,,S*29
09:09:11.254: INFO: COM6 (GNSS) >> $GNGNS,060912.00,4830.0885171,N,04433.2368762,E,AAA,24,0.6,-0.987,3.763,,,S*71
09:09:11.285: INFO: COM6 (GNSS) >> $GLGNS,060912.00,,,,,,6,,,,,,S*3A
09:09:11.285: INFO: COM6 (GNSS) >> $GAGNS,060912.00,,,,,,4,,,,,,S*35
09:09:11.301: INFO: COM6 (GNSS) >> $GPRMC,060912.00,A,4830.0885171,N,04433.2368762,E,0.25,34.86,080822,9.6,E,A,S*76
09:09:11.301: INFO: COM6 (GNSS) >> $GPHEV,0.88,*52
09:09:11.301: INFO: COM6 (GNSS) >> $HEHDT,332.61,T*1A
09:09:11.397: INFO: COM6 (GNSS) >> $HEHDT,332.66,T*1D
09:09:11.493: INFO: COM6 (GNSS) >> $HEHDT,332.62,T*19
09:09:11.605: INFO: COM6 (GNSS) >> $HEHDT,332.58,T*10
09:09:11.701: INFO: COM6 (GNSS) >> $HEHDT,332.56,T*1E
09:09:11.704: INFO: COM17 (AZM) >> $PAZM3,1,0,0,0,16.3,-0.001162,-1.7,,0.0,86.5,90.0,1061.91,25.7,,2.4,1.2
09:09:11.797: INFO: COM6 (GNSS) >> $HEHDT,332.62,T*19
09:09:11.893: INFO: COM6 (GNSS) >> $HEHDT,332.64,T*1F
09:09:12.005: INFO: COM6 (GNSS) >> $HEHDT,332.64,T*1F
09:09:12.102: INFO: COM6 (GNSS) >> $HEHDT,332.74,T*1E
09:09:12.197: INFO: COM6 (GNSS) >> $HEHDT,332.77,T*1D
09:09:12.228: INFO: COM6 (GNSS) >> $HEROT,-1.5,A*02
09:09:12.228: INFO: COM6 (GNSS) >> $GPGNS,060913.00,4830.0885840,N,04433.2369154,E,A,24,0.6,-0.885,3.763,,,S*64
09:09:12.259: INFO: COM6 (GNSS) >> $GNGNS,060913.00,4830.0885840,N,04433.2369154,E,AAA,24,0.6,-0.885,3.763,,,S*7A
09:09:12.259: INFO: COM6 (GNSS) >> $GPGNS,060913.00,,,,,,9,,,,,,S*28
09:09:12.259: INFO: COM6 (GNSS) >> $GLGNS,060913.00,,,,,,6,,,,,,S*3B
09:09:12.290: INFO: COM6 (GNSS) >> $GAGNS,060913.00,,,,,,4,,,,,,S*34
09:09:12.290: INFO: COM6 (GNSS) >> $GPRMC,060913.00,A,4830.0885840,N,04433.2369154,E,0.24,36.82,080822,9.6,E,A,S*79
09:09:12.306: INFO: COM6 (GNSS) >> $GPHEV,0.93,*58
09:09:12.306: INFO: COM6 (GNSS) >> $HEHDT,332.75,T*1F
09:09:12.402: INFO: COM6 (GNSS) >> $HEHDT,332.79,T*13
09:09:12.488: INFO: COM17 (AZM) >> $PAZM3,1,0,0,0,28.8,-0.001762,-2.6,,0.0,272.5,90.0,1061.05,25.6,,2.1,1.4
09:09:12.498: INFO: COM6 (GNSS) >> $HEHDT,332.95,T*11
09:09:12.594: INFO: COM6 (GNSS) >> $HEHDT,333.04,T*18
09:09:12.706: INFO: COM6 (GNSS) >> $HEHDT,333.08,T*14
09:09:12.802: INFO: COM6 (GNSS) >> $HEHDT,333.19,T*14
09:09:12.898: INFO: COM6 (GNSS) >> $HEHDT,333.24,T*1A
09:09:12.994: INFO: COM6 (GNSS) >> $HEHDT,333.27,T*19
09:09:13.106: INFO: COM6 (GNSS) >> $HEHDT,333.39,T*16
09:09:13.203: INFO: COM6 (GNSS) >> $HEHDT,333.39,T*16
09:09:13.203: INFO: COM6 (GNSS) >> $HEROT,25.3,A*1F
09:09:13.250: INFO: COM6 (GNSS) >> $GPGNS,060914.00,4830.0885923,N,04433.2369603,E,D,24,0.6,0.144,3.763,4.0,0123,S*64
09:09:13.250: INFO: COM6 (GNSS) >> $GNGNS,060914.00,4830.0885923,N,04433.2369603,E,DDD,24,0.6,0.144,3.763,,,S*50
09:09:13.256: INFO: COM17 (AZM) >> $PAZM3,1,0,0,0,18.3,-0.001700,-2.5,,0.0,87.5,90.0,1062.61,25.6,,2.5,0.8
09:09:13.280: INFO: COM6 (GNSS) >> $GPGNS,060914.00,,,,,,9,,,,4.0,0123,S*05
09:09:13.280: INFO: COM6 (GNSS) >> $GAGNS,060914.00,,,,,,4,,,,4.0,0123,S*19
09:09:13.280: INFO: COM6 (GNSS) >> $GLGNS,060914.00,,,,,,6,,,,4.0,0123,S*16
09:09:13.311: INFO: COM6 (GNSS) >> $GPRMC,060914.00,A,4830.0885923,N,04433.2369603,E,0.20,43.12,080822,9.6,E,D,S*75
09:09:13.311: INFO: COM6 (GNSS) >> $GPHEV,1.90,*5A
09:09:13.311: INFO: COM6 (GNSS) >> $HEHDT,333.51,T*18
09:09:13.407: INFO: COM6 (GNSS) >> $HEHDT,333.58,T*11
09:09:13.503: INFO: COM6 (GNSS) >> $HEHDT,333.51,T*18
09:09:13.599: INFO: COM6 (GNSS) >> $HEHDT,333.58,T*11
09:09:13.695: INFO: COM6 (GNSS) >> $HEHDT,333.60,T*1A
09:09:13.807: INFO: COM6 (GNSS) >> $HEHDT,333.64,T*1E
09:09:13.903: INFO: COM6 (GNSS) >> $HEHDT,333.68,T*12
09:09:13.999: INFO: COM6 (GNSS) >> $HEHDT,333.76,T*1D
09:09:14.040: INFO: COM17 (AZM) >> $PAZM3,1,0,0,0,19.9,-0.001112,-1.6,,0.0,87.5,90.0,1060.93,25.6,,2.4,1.3
09:09:14.095: INFO: COM6 (GNSS) >> $HEHDT,333.77,T*1C
09:09:14.207: INFO: COM6 (GNSS) >> $HEHDT,333.82,T*16
09:09:14.207: INFO: COM6 (GNSS) >> $HEROT,27.0,A*1E
09:09:14.238: INFO: COM6 (GNSS) >> $GPGNS,060915.00,4830.0886366,N,04433.2369872,E,D,24,0.6,0.531,3.763,5.0,0123,S*62
09:09:14.269: INFO: COM6 (GNSS) >> $GNGNS,060915.00,4830.0886366,N,04433.2369872,E,DDD,24,0.6,0.531,3.763,,,S*57
09:09:14.269: INFO: COM6 (GNSS) >> $GPGNS,060915.00,,,,,,9,,,,5.0,0123,S*05
09:09:14.269: INFO: COM6 (GNSS) >> $GLGNS,060915.00,,,,,,6,,,,5.0,0123,S*16
09:09:14.300: INFO: COM6 (GNSS) >> $GAGNS,060915.00,,,,,,4,,,,5.0,0123,S*19
09:09:14.300: INFO: COM6 (GNSS) >> $GPRMC,060915.00,A,4830.0886366,N,04433.2369872,E,0.21,41.63,080822,9.6,E,D,S*71
09:09:14.300: INFO: COM6 (GNSS) >> $GPHEV,2.18,*59
09:09:14.316: INFO: COM6 (GNSS) >> $HEHDT,333.85,T*11
09:09:14.396: INFO: COM6 (GNSS) >> $HEHDT,333.88,T*1C
09:09:14.508: INFO: COM6 (GNSS) >> $HEHDT,333.85,T*11
09:09:14.604: INFO: COM6 (GNSS) >> $HEHDT,333.84,T*10
09:09:14.700: INFO: COM6 (GNSS) >> $HEHDT,333.95,T*10
09:09:14.796: INFO: COM6 (GNSS) >> $HEHDT,333.94,T*11
09:09:14.824: INFO: COM17 (AZM) >> $PAZM3,1,0,0,0,16.3,-0.001775,-2.6,,0.0,88.0,90.0,1061.95,25.7,,2.4,1.3
09:09:14.908: INFO: COM6 (GNSS) >> $HEHDT,333.98,T*1D
09:09:15.004: INFO: COM6 (GNSS) >> $HEHDT,334.09,T*12
09:09:15.100: INFO: COM6 (GNSS) >> $HEHDT,334.15,T*1F
09:09:15.196: INFO: COM6 (GNSS) >> $HEHDT,334.27,T*1E
09:09:15.212: INFO: COM6 (GNSS) >> $HEROT,26.5,A*1A
09:09:15.243: INFO: COM6 (GNSS) >> $GPGNS,060916.00,4830.0887251,N,04433.2370623,E,D,27,0.5,0.530,3.763,5.0,0123,S*66
09:09:15.243: INFO: COM6 (GNSS) >> $GNGNS,060916.00,4830.0887251,N,04433.2370623,E,DDD,27,0.5,0.530,3.763,,,S*53
09:09:15.274: INFO: COM6 (GNSS) >> $GPGNS,060916.00,,,,,,9,,,,5.0,0123,S*06
09:09:15.274: INFO: COM6 (GNSS) >> $GAGNS,060916.00,,,,,,7,,,,5.0,0123,S*19
09:09:15.274: INFO: COM6 (GNSS) >> $GLGNS,060916.00,,,,,,6,,,,5.0,0123,S*15
09:09:15.304: INFO: COM6 (GNSS) >> $GPRMC,060916.00,A,4830.0887251,N,04433.2370623,E,0.26,54.00,080822,9.6,E,D,S*72
09:09:15.304: INFO: COM6 (GNSS) >> $GPHEV,2.07,*57
09:09:15.304: INFO: COM6 (GNSS) >> $HEHDT,334.36,T*1E
09:09:15.401: INFO: COM6 (GNSS) >> $HEHDT,334.40,T*1F
09:09:15.497: INFO: COM6 (GNSS) >> $HEHDT,334.48,T*17
09:09:15.591: INFO: COM17 (AZM) >> $PAZM3,1,0,0,0,16.2,-0.002112,-3.1,,0.0,85.0,90.0,1061.52,25.6,,2.1,1.7
09:09:15.592: INFO: COM6 (GNSS) >> $HEHDT,334.48,T*17
09:09:15.705: INFO: COM6 (GNSS) >> $HEHDT,334.55,T*1B
09:09:15.801: INFO: COM6 (GNSS) >> $HEHDT,334.60,T*1D
09:09:15.896: INFO: COM6 (GNSS) >> $HEHDT,334.70,T*1C
09:09:15.993: INFO: COM6 (GNSS) >> $HEHDT,334.81,T*12
09:09:16.105: INFO: COM6 (GNSS) >> $HEHDT,334.87,T*14
09:09:16.201: INFO: COM6 (GNSS) >> $HEHDT,334.95,T*17
09:09:16.201: INFO: COM6 (GNSS) >> $HEROT,28.4,A*15
09:09:16.232: INFO: COM6 (GNSS) >> $GPGNS,060917.00,4830.0888039,N,04433.2371484,E,D,27,0.5,0.498,3.763,5.0,0123,S*69
09:09:16.263: INFO: COM6 (GNSS) >> $GNGNS,060917.00,4830.0888039,N,04433.2371484,E,DDD,27,0.5,0.498,3.763,,,S*5C
09:09:16.263: INFO: COM6 (GNSS) >> $GPGNS,060917.00,,,,,,9,,,,5.0,0123,S*07
09:09:16.263: INFO: COM6 (GNSS) >> $GLGNS,060917.00,,,,,,6,,,,5.0,0123,S*14
09:09:16.294: INFO: COM6 (GNSS) >> $GAGNS,060917.00,,,,,,7,,,,5.0,0123,S*18
09:09:16.310: INFO: COM6 (GNSS) >> $GPHEV,1.94,*5E
09:09:16.310: INFO: COM6 (GNSS) >> $GPRMC,060917.00,A,4830.0888039,N,04433.2371484,E,0.22,53.60,080822,9.6,E,D,S*7B
09:09:16.310: INFO: COM6 (GNSS) >> $HEHDT,335.04,T*1E
09:09:16.375: INFO: COM17 (AZM) >> $PAZM3,1,0,0,0,15.7,-0.001112,-1.6,,0.0,87.5,90.0,1060.30,25.7,,2.9,1.7
09:09:16.405: INFO: COM6 (GNSS) >> $HEHDT,335.09,T*13
09:09:16.501: INFO: COM6 (GNSS) >> $HEHDT,335.17,T*1C
09:09:16.598: INFO: COM6 (GNSS) >> $HEHDT,335.19,T*12
09:09:16.694: INFO: COM6 (GNSS) >> $HEHDT,335.17,T*1C
09:09:16.806: INFO: COM6 (GNSS) >> $HEHDT,335.17,T*1C
09:09:16.902: INFO: COM6 (GNSS) >> $HEHDT,335.20,T*18
09:09:16.997: INFO: COM6 (GNSS) >> $HEHDT,335.22,T*1A
09:09:17.094: INFO: COM6 (GNSS) >> $HEHDT,335.21,T*19
09:09:17.205: INFO: COM6 (GNSS) >> $HEHDT,335.25,T*1D
09:09:17.205: INFO: COM6 (GNSS) >> $HEROT,24.7,A*1A
09:09:17.236: INFO: COM6 (GNSS) >> $GPGNS,060918.00,4830.0888415,N,04433.2372249,E,D,27,0.5,0.492,3.763,4.0,0123,S*63
09:09:17.267: INFO: COM6 (GNSS) >> $GNGNS,060918.00,4830.0888415,N,04433.2372249,E,DDD,27,0.5,0.492,3.763,,,S*57
09:09:17.267: INFO: COM6 (GNSS) >> $GPGNS,060918.00,,,,,,9,,,,4.0,0123,S*09
09:09:17.267: INFO: COM6 (GNSS) >> $GLGNS,060918.00,,,,,,6,,,,4.0,0123,S*1A
09:09:17.298: INFO: COM6 (GNSS) >> $GAGNS,060918.00,,,,,,7,,,,4.0,0123,S*16
09:09:17.298: INFO: COM6 (GNSS) >> $GPRMC,060918.00,A,4830.0888415,N,04433.2372249,E,0.22,54.16,080822,9.6,E,D,S*7C
09:09:17.314: INFO: COM6 (GNSS) >> $HEHDT,335.26,T*1E
09:09:17.314: INFO: COM6 (GNSS) >> $GPHEV,1.84,*5F
09:09:17.350: INFO: COM17 (AZM) >> $PAZM3,0,,,,,,,,,,,1061.01,25.7,,2.6,1.7*30
09:09:17.394: INFO: COM6 (GNSS) >> $HEHDT,335.29,T*11
09:09:17.506: INFO: COM6 (GNSS) >> $HEHDT,335.32,T*1B
09:09:17.602: INFO: COM6 (GNSS) >> $HEHDT,335.32,T*1B
09:09:17.699: INFO: COM6 (GNSS) >> $HEHDT,335.38,T*11
09:09:17.794: INFO: COM6 (GNSS) >> $HEHDT,335.47,T*19
09:09:17.907: INFO: COM6 (GNSS) >> $HEHDT,335.45,T*1B
09:09:17.911: INFO: COM17 (AZM) >> $PAZM3,2,0,0,,,,,,,,,1058.77,25.7,,2.5,1.7*3A
09:09:18.003: INFO: COM6 (GNSS) >> $HEHDT,335.48,T*16
09:09:18.098: INFO: COM6 (GNSS) >> $HEHDT,335.53,T*1C
09:09:18.195: INFO: COM6 (GNSS) >> $HEHDT,335.60,T*1C
09:09:18.211: INFO: COM6 (GNSS) >> $HEROT,37.8,A*17
09:09:18.227: INFO: COM6 (GNSS) >> $GPGNS,060919.00,4830.0888694,N,04433.2372951,E,D,27,0.5,0.484,3.763,5.0,0123,S*6D
09:09:18.257: INFO: COM6 (GNSS) >> $GNGNS,060919.00,4830.0888694,N,04433.2372951,E,DDD,27,0.5,0.484,3.763,,,S*58
09:09:18.257: INFO: COM6 (GNSS) >> $GPGNS,060919.00,,,,,,9,,,,5.0,0123,S*09
09:09:18.288: INFO: COM6 (GNSS) >> $GLGNS,060919.00,,,,,,6,,,,5.0,0123,S*1A
09:09:18.288: INFO: COM6 (GNSS) >> $GAGNS,060919.00,,,,,,7,,,,5.0,0123,S*16
09:09:18.304: INFO: COM6 (GNSS) >> $GPRMC,060919.00,A,4830.0888694,N,04433.2372951,E,0.18,60.92,080822,9.6,E,D,S*76
09:09:18.304: INFO: COM6 (GNSS) >> $GPHEV,1.74,*50
09:09:18.304: INFO: COM6 (GNSS) >> $HEHDT,335.69,T*15
09:09:18.400: INFO: COM6 (GNSS) >> $HEHDT,335.75,T*18
09:09:18.496: INFO: COM6 (GNSS) >> $HEHDT,335.80,T*12
09:09:18.592: INFO: COM6 (GNSS) >> $HEHDT,335.92,T*11
09:09:18.704: INFO: COM6 (GNSS) >> $HEHDT,335.97,T*14
09:09:18.800: INFO: COM6 (GNSS) >> $HEHDT,336.01,T*18
09:09:18.896: INFO: COM6 (GNSS) >> $HEHDT,335.99,T*1A
09:09:18.901: INFO: COM17 (AZM) >> $PAZM3,0,,,,,,,,,,,1060.25,25.7,,2.4,1.5*37
09:09:19.008: INFO: COM6 (GNSS) >> $HEHDT,336.01,T*18
09:09:19.104: INFO: COM6 (GNSS) >> $HEHDT,336.06,T*1F
09:09:19.200: INFO: COM6 (GNSS) >> $HEHDT,336.17,T*1F
09:09:19.201: INFO: COM6 (GNSS) >> $HEROT,32.1,A*1B
09:09:19.247: INFO: COM6 (GNSS) >> $GPGNS,060920.00,4830.0888824,N,04433.2373595,E,D,27,0.5,0.390,3.763,5.0,0123,S*65
09:09:19.248: INFO: COM6 (GNSS) >> $GNGNS,060920.00,4830.0888824,N,04433.2373595,E,DDD,27,0.5,0.390,3.763,,,S*50
09:09:19.278: INFO: COM6 (GNSS) >> $GPGNS,060920.00,,,,,,9,,,,5.0,0123,S*03
09:09:19.278: INFO: COM6 (GNSS) >> $GLGNS,060920.00,,,,,,6,,,,5.0,0123,S*10
09:09:19.278: INFO: COM6 (GNSS) >> $GAGNS,060920.00,,,,,,7,,,,5.0,0123,S*1C
09:09:19.309: INFO: COM6 (GNSS) >> $GPRMC,060920.00,A,4830.0888824,N,04433.2373595,E,0.18,88.60,080822,9.6,E,D,S*77
09:09:19.309: INFO: COM6 (GNSS) >> $GPHEV,1.57,*51
09:09:19.309: INFO: COM6 (GNSS) >> $HEHDT,336.21,T*1A
09:09:19.405: INFO: COM6 (GNSS) >> $HEHDT,336.32,T*18
09:09:19.462: INFO: COM17 (AZM) >> $PAZM3,2,0,0,,,,,,,,,1062.05,25.7,,2.5,1.5*34
09:09:19.501: INFO: COM6 (GNSS) >> $HEHDT,336.38,T*12
09:09:19.597: INFO: COM6 (GNSS) >> $HEHDT,336.52,T*1E
09:09:19.693: INFO: COM6 (GNSS) >> $HEHDT,336.61,T*1E
09:09:19.805: INFO: COM6 (GNSS) >> $HEHDT,336.66,T*19
09:09:19.901: INFO: COM6 (GNSS) >> $HEHDT,336.80,T*11
09:09:19.997: INFO: COM6 (GNSS) >> $HEHDT,336.95,T*15
09:09:20.093: INFO: COM6 (GNSS) >> $HEHDT,337.07,T*1F
09:09:20.220: INFO: COM6 (GNSS) >> $HEHDT,337.23,T*19
09:09:20.220: INFO: COM6 (GNSS) >> $HEROT,52.1,A*1D
09:09:20.220: INFO: COM6 (GNSS) >> $GPGNS,060921.00,4830.0888884,N,04433.2374352,E,D,27,0.5,0.235,3.763,5.0,0123,C*7A
09:09:20.251: INFO: COM6 (GNSS) >> $GNGNS,060921.00,4830.0888884,N,04433.2374352,E,DDD,27,0.5,0.235,3.763,,,C*4F
09:09:20.251: INFO: COM6 (GNSS) >> $GPGNS,060921.00,,,,,,9,,,,5.0,0123,C*12
09:09:20.282: INFO: COM6 (GNSS) >> $GLGNS,060921.00,,,,,,6,,,,5.0,0123,C*01
09:09:20.282: INFO: COM6 (GNSS) >> $GAGNS,060921.00,,,,,,7,,,,5.0,0123,C*0D
09:09:20.313: INFO: COM6 (GNSS) >> $GPRMC,060921.00,A,4830.0888884,N,04433.2374352,E,0.22,58.09,080822,9.6,E,D,C*6D
09:09:20.313: INFO: COM6 (GNSS) >> $GPHEV,1.34,*54
09:09:20.313: INFO: COM6 (GNSS) >> $HEHDT,337.42,T*1E
09:09:20.393: INFO: COM6 (GNSS) >> $HEHDT,337.61,T*1F
09:09:20.454: INFO: COM17 (AZM) >> $PAZM3,0,,,,,,,,,,,1061.14,25.7,,2.4,1.3*32
09:09:20.505: INFO: COM6 (GNSS) >> $HEHDT,337.78,T*17
09:09:20.601: INFO: COM6 (GNSS) >> $HEHDT,337.97,T*16
09:09:20.697: INFO: COM6 (GNSS) >> $HEHDT,338.11,T*17
09:09:20.794: INFO: COM6 (GNSS) >> $HEHDT,338.22,T*17
09:09:20.905: INFO: COM6 (GNSS) >> $HEHDT,338.31,T*15
09:09:21.001: INFO: COM6 (GNSS) >> $HEHDT,338.48,T*1B
09:09:21.014: INFO: COM17 (AZM) >> $PAZM3,2,0,0,,,,,,,,,1063.28,25.7,,2.6,1.4*38
09:09:21.094: INFO: COM17 (AZM) << $PAZM1,,,,*37
09:09:21.097: INFO: COM6 (GNSS) >> $HEHDT,338.63,T*12
09:09:21.157: INFO: COM17 (AZM) >> $PAZM1,0,0.0,1500.0,1500.0*29
09:09:21.192: INFO: COM6 (GNSS) >> $HEHDT,338.80,T*1F
09:09:21.223: INFO: COM6 (GNSS) >> $HEROT,65.1,A*19
09:09:21.223: INFO: COM6 (GNSS) >> $GPGNS,060922.00,4830.0888994,N,04433.2375078,E,D,27,0.5,0.096,3.763,4.0,0123,C*79
09:09:21.254: INFO: COM6 (GNSS) >> $GPGNS,060922.00,,,,,,9,,,,4.0,0123,C*10
09:09:21.254: INFO: COM6 (GNSS) >> $GNGNS,060922.00,4830.0888994,N,04433.2375078,E,DDD,27,0.5,0.096,3.763,,,C*4D
09:09:21.286: INFO: COM6 (GNSS) >> $GLGNS,060922.00,,,,,,6,,,,4.0,0123,C*03
09:09:21.286: INFO: COM6 (GNSS) >> $GAGNS,060922.00,,,,,,7,,,,4.0,0123,C*0F
09:09:21.318: INFO: COM6 (GNSS) >> $GPRMC,060922.00,A,4830.0888994,N,04433.2375078,E,0.22,80.77,080822,9.6,E,D,C*68
09:09:21.319: INFO: COM6 (GNSS) >> $GPHEV,1.14,*56
09:09:21.325: INFO: COM6 (GNSS) >> $HEHDT,338.91,T*1F
09:09:21.397: INFO: COM6 (GNSS) >> $HEHDT,339.01,T*17
09:09:21.493: INFO: COM6 (GNSS) >> $HEHDT,339.11,T*16
09:09:22.041: INFO: COM6 (GNSS) >> $HEHDT,339.21,T*15
09:09:22.400: INFO: COM17 (AZM) Closed
09:09:22.411: IsActive=False
09:09:22.411: INFO: AZM Stopped
09:09:23.048: INFO: COM6 (GNSS) >> $HEHDT,339.23,T*17
09:09:23.417: INFO: COM6 (GNSS) Closed
09:09:23.418: INFO: GNSS Stopped
09:09:23.420: INFO: COM6 (GNSS) >> $HEHDT,339.27,T*13
09:09:23.420: INFO: COM6 (GNSS) >> $HEHDT,339.24,T*10
09:09:23.421: INFO: COM6 (GNSS) >> $HEHDT,339.13,T*14
09:09:23.430: INFO: Trying COM6 as GNSS...
09:09:23.445: INFO: GNSS Starting detection...
09:09:23.451: INFO: Trying COM17 as GNSS...
09:09:23.474: INFO: AZM detected on COM17
09:09:23.489: INFO: Polling started (AddrMask=0, Salinity=0.0 PSU, SoundSpeed=1500.0 m/s, MaxDist=1500.0 m)
09:09:23.960: ERROR: COM17 (GNSS) >> Frame
09:09:23.961: ERROR: COM17 (GNSS) >> Frame
09:09:23.995: ERROR: COM17 (GNSS) >> Frame
09:09:24.013: ERROR: COM17 (GNSS) >> Frame
09:09:24.026: ERROR: COM17 (GNSS) >> Frame
09:09:24.036: ERROR: COM17 (GNSS) >> Frame
09:09:24.048: ERROR: COM17 (GNSS) >> Frame
09:09:24.060: ERROR: COM17 (GNSS) >> Frame
09:09:24.073: ERROR: COM17 (GNSS) >> Frame
09:09:24.083: ERROR: COM17 (GNSS) >> Frame
09:09:24.097: ERROR: COM17 (GNSS) >> Frame
09:09:24.106: ERROR: COM17 (GNSS) >> Frame
09:09:24.117: ERROR: COM17 (GNSS) >> Frame
09:09:24.128: ERROR: COM17 (GNSS) >> Frame
09:09:24.137: ERROR: COM17 (GNSS) >> Frame
09:09:24.148: ERROR: COM17 (GNSS) >> Frame
09:09:24.160: ERROR: COM17 (GNSS) >> Frame
09:09:24.169: ERROR: COM17 (GNSS) >> Frame
09:09:24.179: ERROR: COM17 (GNSS) >> Frame
09:09:24.188: ERROR: COM17 (GNSS) >> Frame
09:09:24.197: ERROR: COM17 (GNSS) >> Frame
09:09:24.206: ERROR: COM17 (GNSS) >> Frame
09:09:24.217: ERROR: COM17 (GNSS) >> Frame
09:09:24.228: ERROR: COM17 (GNSS) >> Frame
09:09:24.241: ERROR: COM17 (GNSS) >> Frame
09:09:24.250: ERROR: COM17 (GNSS) >> Frame
09:09:24.261: ERROR: COM17 (GNSS) >> Frame
09:09:24.274: ERROR: COM17 (GNSS) >> Frame
09:09:24.288: ERROR: COM17 (GNSS) >> Frame
09:09:24.300: ERROR: COM17 (GNSS) >> Frame
09:09:24.312: ERROR: COM17 (GNSS) >> Frame
09:09:24.325: ERROR: COM17 (GNSS) >> Frame
09:09:24.334: ERROR: COM17 (GNSS) >> Frame
09:09:24.344: ERROR: COM17 (GNSS) >> Frame
09:09:24.353: ERROR: COM17 (GNSS) >> Frame
09:09:24.365: ERROR: COM17 (GNSS) >> Frame
09:09:24.375: ERROR: COM17 (GNSS) >> Frame
09:09:24.387: ERROR: COM17 (GNSS) >> Frame
09:09:24.397: ERROR: COM17 (GNSS) >> Frame
09:09:24.409: ERROR: COM17 (GNSS) >> Frame
09:09:24.419: ERROR: COM17 (GNSS) >> Frame
09:09:24.429: ERROR: COM17 (GNSS) >> Frame
09:09:24.439: ERROR: COM17 (GNSS) >> Frame
09:09:24.450: ERROR: COM17 (GNSS) >> Frame
09:09:25.882: INFO: COM17 (GNSS) Closed
09:09:25.883: INFO: Trying COM7 as GNSS...
09:09:28.341: INFO: COM7 (GNSS) Closed
09:09:28.342: ERROR: GNSS was not detected, retrying in a moment... 
09:09:29.762: INFO: Trying COM6 as GNSS...
09:09:29.811: ERROR: Error occured during opening port COM6: Доступ к порту 'COM6' закрыт.    в UCNLDrivers.NMEASerialPort.Open() в C:\Users\aleks\SynologyDrive\Drive\UCNL_HOSTS\netFramework\UCNLLibs\UCNLDrivers\UCNLDrivers\NMEASerialPort.cs:строка 141
   в UCNLDrivers.uSerialPort.TryNextPort() в C:\Users\aleks\SynologyDrive\Drive\UCNL_HOSTS\netFramework\UCNLLibs\UCNLDrivers\UCNLDrivers\uSerialPort.cs:строка 282
09:09:30.436: INFO: Trying COM17 as GNSS...
09:09:30.469: ERROR: COM17 (GNSS) >> Overrun
09:09:31.011: ERROR: COM17 (GNSS) >> Frame
09:09:31.012: ERROR: COM17 (GNSS) >> Frame
09:09:31.042: ERROR: COM17 (GNSS) >> Frame
09:09:31.070: ERROR: COM17 (GNSS) >> Frame
09:09:31.093: ERROR: COM17 (GNSS) >> Frame
09:09:31.108: ERROR: COM17 (GNSS) >> Frame
09:09:31.123: ERROR: COM17 (GNSS) >> Frame
09:09:31.134: ERROR: COM17 (GNSS) >> Frame
09:09:31.146: ERROR: COM17 (GNSS) >> Frame
09:09:31.155: ERROR: COM17 (GNSS) >> Frame
09:09:31.165: ERROR: COM17 (GNSS) >> Frame
09:09:31.175: ERROR: COM17 (GNSS) >> Frame
09:09:31.186: ERROR: COM17 (GNSS) >> Frame
09:09:31.196: ERROR: COM17 (GNSS) >> Frame
09:09:31.205: ERROR: COM17 (GNSS) >> Frame
09:09:31.214: ERROR: COM17 (GNSS) >> Frame
09:09:31.226: ERROR: COM17 (GNSS) >> Frame
09:09:31.236: ERROR: COM17 (GNSS) >> Frame
09:09:31.246: ERROR: COM17 (GNSS) >> Frame
09:09:31.255: ERROR: COM17 (GNSS) >> Frame
09:09:31.266: ERROR: COM17 (GNSS) >> Frame
09:09:31.279: ERROR: COM17 (GNSS) >> Frame
09:09:31.290: ERROR: COM17 (GNSS) >> Frame
09:09:32.872: INFO: COM17 (GNSS) Closed
09:09:32.873: INFO: Trying COM7 as GNSS...
09:09:35.334: INFO: COM7 (GNSS) Closed
09:09:35.335: ERROR: GNSS was not detected, retrying in a moment... 
09:09:36.757: INFO: Trying COM6 as GNSS...
09:09:36.806: INFO: COM6 (GNSS) >> $HEHDT,326.63,T*1D
09:09:36.836: INFO: GNSS detected on COM6
09:09:36.903: INFO: COM6 (GNSS) >> $HEHDT,326.45,T*19
09:09:36.999: INFO: COM6 (GNSS) >> $HEHDT,326.23,T*19
09:09:37.094: INFO: COM6 (GNSS) >> $HEHDT,326.02,T*1A
09:09:37.221: INFO: COM6 (GNSS) >> $HEHDT,325.85,T*16
09:09:37.221: INFO: COM6 (GNSS) >> $HEROT,-100.6,A*01
09:09:37.221: INFO: COM6 (GNSS) >> $GPGNS,060938.00,4830.0889037,N,04433.2388656,E,D,28,0.5,-0.477,3.763,4.0,0123,S*42
09:09:37.252: INFO: COM6 (GNSS) >> $GPGNS,060938.00,,,,,,9,,,,4.0,0123,S*0B
09:09:37.252: INFO: COM6 (GNSS) >> $GNGNS,060938.00,4830.0889037,N,04433.2388656,E,DDD,28,0.5,-0.477,3.763,,,S*76
09:09:37.283: INFO: COM6 (GNSS) >> $GLGNS,060938.00,,,,,,6,,,,4.0,0123,S*18
09:09:37.283: INFO: COM6 (GNSS) >> $GAGNS,060938.00,,,,,,7,,,,4.0,0123,S*14
09:09:37.314: INFO: COM6 (GNSS) >> $GPRMC,060938.00,A,4830.0889037,N,04433.2388656,E,0.23,86.04,080822,9.6,E,D,S*79
09:09:37.314: INFO: COM6 (GNSS) >> $GPHEV,0.18,*5B
09:09:37.314: INFO: COM6 (GNSS) >> $HEHDT,325.69,T*14
09:09:37.395: INFO: COM6 (GNSS) >> $HEHDT,325.63,T*1E
09:09:37.506: INFO: COM6 (GNSS) >> $HEHDT,325.45,T*1A
09:09:37.602: INFO: COM6 (GNSS) >> $HEHDT,325.32,T*1A
09:09:37.698: INFO: COM6 (GNSS) >> $HEHDT,325.31,T*19
09:09:37.794: INFO: COM6 (GNSS) >> $HEHDT,325.25,T*1C
09:09:37.906: INFO: COM6 (GNSS) >> $HEHDT,325.19,T*13
09:09:38.002: INFO: COM6 (GNSS) >> $HEHDT,325.20,T*19
09:09:38.099: INFO: COM6 (GNSS) >> $HEHDT,325.26,T*1F
09:09:38.194: INFO: COM6 (GNSS) >> $HEHDT,325.26,T*1F
09:09:38.210: INFO: COM6 (GNSS) >> $HEROT,-70.8,A*39
09:09:38.241: INFO: COM6 (GNSS) >> $GPGNS,060939.00,4830.0888951,N,04433.2389791,E,D,28,0.5,-0.485,3.763,5.0,0123,S*4C
09:09:38.241: INFO: COM6 (GNSS) >> $GNGNS,060939.00,4830.0888951,N,04433.2389791,E,DDD,28,0.5,-0.485,3.763,,,S*79
09:09:38.272: INFO: COM6 (GNSS) >> $GPGNS,060939.00,,,,,,9,,,,5.0,0123,S*0B
09:09:38.272: INFO: COM6 (GNSS) >> $GLGNS,060939.00,,,,,,6,,,,5.0,0123,S*18
09:09:38.303: INFO: COM6 (GNSS) >> $GAGNS,060939.00,,,,,,7,,,,5.0,0123,S*14
09:09:38.303: INFO: COM6 (GNSS) >> $GPRMC,060939.00,A,4830.0888951,N,04433.2389791,E,0.33,97.73,080822,9.6,E,D,S*7A
09:09:38.303: INFO: COM6 (GNSS) >> $GPHEV,0.16,*55
09:09:38.319: INFO: COM6 (GNSS) >> $HEHDT,325.38,T*10
09:09:38.399: INFO: COM6 (GNSS) >> $HEHDT,325.44,T*1B
09:09:38.496: INFO: COM6 (GNSS) >> $HEHDT,325.52,T*1C
09:09:38.607: INFO: COM6 (GNSS) >> $HEHDT,325.62,T*1F
09:09:38.703: INFO: COM6 (GNSS) >> $HEHDT,325.73,T*1F
09:09:38.799: INFO: COM6 (GNSS) >> $HEHDT,325.84,T*17
09:09:38.895: INFO: COM6 (GNSS) >> $HEHDT,326.02,T*1A
09:09:39.007: INFO: COM6 (GNSS) >> $HEHDT,326.23,T*19
09:09:39.103: INFO: COM6 (GNSS) >> $HEHDT,326.40,T*1C
09:09:39.199: INFO: COM6 (GNSS) >> $HEHDT,326.65,T*1B
09:09:39.199: INFO: COM6 (GNSS) >> $HEROT,-10.0,A*37
09:09:39.231: INFO: COM6 (GNSS) >> $GPGNS,060940.00,4830.0888962,N,04433.2391187,E,D,28,0.5,-0.500,3.763,5.0,0123,S*46
09:09:39.262: INFO: COM6 (GNSS) >> $GNGNS,060940.00,4830.0888962,N,04433.2391187,E,DDD,28,0.5,-0.500,3.763,,,S*73
09:09:39.262: INFO: COM6 (GNSS) >> $GPGNS,060940.00,,,,,,9,,,,5.0,0123,S*05
09:09:39.262: INFO: COM6 (GNSS) >> $GLGNS,060940.00,,,,,,6,,,,5.0,0123,S*16
09:09:39.293: INFO: COM6 (GNSS) >> $GAGNS,060940.00,,,,,,7,,,,5.0,0123,S*1A
09:09:39.309: INFO: COM6 (GNSS) >> $GPHEV,0.14,*57
09:09:39.309: INFO: COM6 (GNSS) >> $GPRMC,060940.00,A,4830.0888962,N,04433.2391187,E,0.33,88.99,080822,9.6,E,D,S*76
09:09:39.309: INFO: COM6 (GNSS) >> $HEHDT,326.86,T*16
09:09:39.405: INFO: COM6 (GNSS) >> $HEHDT,327.10,T*18
09:09:39.501: INFO: COM6 (GNSS) >> $HEHDT,327.26,T*1D
09:09:39.597: INFO: COM6 (GNSS) >> $HEHDT,327.44,T*19
09:09:39.693: INFO: COM6 (GNSS) >> $HEHDT,327.63,T*1C
09:09:39.804: INFO: COM6 (GNSS) >> $HEHDT,327.85,T*14
09:09:39.901: INFO: COM6 (GNSS) >> $HEHDT,327.98,T*18
09:09:39.996: INFO: COM6 (GNSS) >> $HEHDT,328.13,T*14
09:09:40.093: INFO: COM6 (GNSS) >> $HEHDT,328.26,T*12
09:09:40.205: INFO: COM6 (GNSS) >> $HEHDT,328.31,T*14
09:09:40.205: INFO: COM6 (GNSS) >> $HEROT,30.3,A*1B
09:09:40.235: INFO: COM6 (GNSS) >> $GPGNS,060941.00,4830.0888999,N,04433.2392627,E,D,29,0.5,-0.513,3.763,5.0,0123,S*4E
09:09:40.266: INFO: COM6 (GNSS) >> $GNGNS,060941.00,4830.0888999,N,04433.2392627,E,DDD,29,0.5,-0.513,3.763,,,S*7B
09:09:40.266: INFO: COM6 (GNSS) >> $GPGNS,060941.00,,,,,,9,,,,5.0,0123,S*04
09:09:40.266: INFO: COM6 (GNSS) >> $GLGNS,060941.00,,,,,,7,,,,5.0,0123,S*16
09:09:40.298: INFO: COM6 (GNSS) >> $GAGNS,060941.00,,,,,,7,,,,5.0,0123,S*1B
09:09:40.298: INFO: COM6 (GNSS) >> $GPRMC,060941.00,A,4830.0888999,N,04433.2392627,E,0.35,83.08,080822,9.6,E,D,S*78
09:09:40.314: INFO: COM6 (GNSS) >> $GPHEV,0.12,*51
09:09:40.314: INFO: COM6 (GNSS) >> $HEHDT,328.36,T*13
09:09:40.394: INFO: COM6 (GNSS) >> $HEHDT,328.41,T*13
09:09:40.506: INFO: COM6 (GNSS) >> $HEHDT,328.47,T*15
09:09:40.601: INFO: COM6 (GNSS) >> $HEHDT,328.43,T*11
09:09:40.698: INFO: COM6 (GNSS) >> $HEHDT,328.42,T*10
09:09:40.794: INFO: COM6 (GNSS) >> $HEHDT,328.33,T*16
09:09:40.906: INFO: COM6 (GNSS) >> $HEHDT,328.23,T*17
09:09:41.002: INFO: COM6 (GNSS) >> $HEHDT,328.17,T*10
09:09:41.097: INFO: COM6 (GNSS) >> $HEHDT,328.09,T*1F
09:09:41.194: INFO: COM6 (GNSS) >> $HEHDT,328.04,T*12
09:09:41.225: INFO: COM6 (GNSS) >> $HEROT,14.8,A*16
09:09:41.225: INFO: COM6 (GNSS) >> $GPGNS,060942.00,4830.0888934,N,04433.2393775,E,D,29,0.5,-0.520,3.763,4.0,0123,S*4C
09:09:41.256: INFO: COM6 (GNSS) >> $GNGNS,060942.00,4830.0888934,N,04433.2393775,E,DDD,29,0.5,-0.520,3.763,,,S*78
09:09:41.256: INFO: COM6 (GNSS) >> $GPGNS,060942.00,,,,,,9,,,,4.0,0123,S*06
09:09:41.287: INFO: COM6 (GNSS) >> $GLGNS,060942.00,,,,,,7,,,,4.0,0123,S*14
09:09:41.287: INFO: COM6 (GNSS) >> $GAGNS,060942.00,,,,,,7,,,,4.0,0123,S*19
09:09:41.318: INFO: COM6 (GNSS) >> $GPHEV,0.11,*52
09:09:41.318: INFO: COM6 (GNSS) >> $GPRMC,060942.00,A,4830.0888934,N,04433.2393775,E,0.24,111.83,080822,9.6,E,D,S*42
09:09:41.318: INFO: COM6 (GNSS) >> $HEHDT,327.95,T*15
09:09:41.398: INFO: COM6 (GNSS) >> $HEHDT,327.82,T*13
09:09:41.494: INFO: COM6 (GNSS) >> $HEHDT,327.72,T*1C
09:09:41.606: INFO: COM6 (GNSS) >> $HEHDT,327.59,T*15
09:09:41.702: INFO: COM6 (GNSS) >> $HEHDT,327.42,T*1F
09:09:41.798: INFO: COM6 (GNSS) >> $HEHDT,327.31,T*1B
09:09:41.894: INFO: COM6 (GNSS) >> $HEHDT,327.19,T*11
09:09:42.006: INFO: COM6 (GNSS) >> $HEHDT,327.03,T*1A
09:09:42.101: INFO: COM6 (GNSS) >> $HEHDT,326.86,T*16
09:09:42.197: INFO: COM6 (GNSS) >> $HEHDT,326.69,T*17
09:09:42.228: INFO: COM6 (GNSS) >> $HEROT,-23.2,A*35
09:09:42.228: INFO: COM6 (GNSS) >> $GPGNS,060943.00,4830.0888800,N,04433.2394716,E,D,29,0.5,-0.533,3.763,5.0,0123,S*4A
09:09:42.259: INFO: COM6 (GNSS) >> $GNGNS,060943.00,4830.0888800,N,04433.2394716,E,DDD,29,0.5,-0.533,3.763,,,S*7F
09:09:42.259: INFO: COM6 (GNSS) >> $GPGNS,060943.00,,,,,,9,,,,5.0,0123,S*06
09:09:42.290: INFO: COM6 (GNSS) >> $GLGNS,060943.00,,,,,,7,,,,5.0,0123,S*14
09:09:42.290: INFO: COM6 (GNSS) >> $GAGNS,060943.00,,,,,,7,,,,5.0,0123,S*19
09:09:42.307: INFO: COM6 (GNSS) >> $GPRMC,060943.00,A,4830.0888800,N,04433.2394716,E,0.22,115.81,080822,9.6,E,D,S*47
09:09:42.307: INFO: COM6 (GNSS) >> $GPHEV,0.09,*5B
09:09:42.307: INFO: COM6 (GNSS) >> $HEHDT,326.53,T*1E
09:09:42.403: INFO: COM6 (GNSS) >> $HEHDT,326.35,T*1E
09:09:42.498: INFO: COM6 (GNSS) >> $HEHDT,326.21,T*1B
09:09:42.594: INFO: COM6 (GNSS) >> $HEHDT,326.02,T*1A
09:09:42.707: INFO: COM6 (GNSS) >> $HEHDT,325.90,T*12
09:09:42.803: INFO: COM6 (GNSS) >> $HEHDT,325.75,T*19
09:09:42.898: INFO: COM6 (GNSS) >> $HEHDT,325.58,T*16
09:09:42.994: INFO: COM6 (GNSS) >> $HEHDT,325.41,T*1E
09:09:43.106: INFO: COM6 (GNSS) >> $HEHDT,325.21,T*18
09:09:43.202: INFO: COM6 (GNSS) >> $HEHDT,325.02,T*19
09:09:43.202: INFO: COM6 (GNSS) >> $HEROT,-51.9,A*3B
09:09:43.249: INFO: COM6 (GNSS) >> $GPGNS,060944.00,4830.0888602,N,04433.2395598,E,D,29,0.5,-0.543,3.763,5.0,0123,S*43
09:09:43.250: INFO: COM6 (GNSS) >> $GNGNS,060944.00,4830.0888602,N,04433.2395598,E,DDD,29,0.5,-0.543,3.763,,,S*76
09:09:43.280: INFO: COM6 (GNSS) >> $GPGNS,060944.00,,,,,,9,,,,5.0,0123,S*01
09:09:43.281: INFO: COM6 (GNSS) >> $GLGNS,060944.00,,,,,,7,,,,5.0,0123,S*13
09:09:43.281: INFO: COM6 (GNSS) >> $GAGNS,060944.00,,,,,,7,,,,5.0,0123,S*1E
09:09:43.311: INFO: COM6 (GNSS) >> $GPRMC,060944.00,A,4830.0888602,N,04433.2395598,E,0.22,99.99,080822,9.6,E,D,S*75
09:09:43.311: INFO: COM6 (GNSS) >> $GPHEV,0.08,*5A
09:09:43.312: INFO: COM6 (GNSS) >> $HEHDT,324.82,T*10
09:09:43.407: INFO: COM6 (GNSS) >> $HEHDT,324.69,T*15
09:09:43.504: INFO: COM6 (GNSS) >> $HEHDT,324.53,T*1C
09:09:43.600: INFO: COM6 (GNSS) >> $HEHDT,324.49,T*17
09:09:43.695: INFO: COM6 (GNSS) >> $HEHDT,324.41,T*1F
09:09:43.807: INFO: COM6 (GNSS) >> $HEHDT,324.34,T*1D
09:09:43.903: INFO: COM6 (GNSS) >> $HEHDT,324.27,T*1F
09:09:44.000: INFO: COM6 (GNSS) >> $HEHDT,324.39,T*10
09:09:44.095: INFO: COM6 (GNSS) >> $HEHDT,324.44,T*1A
09:09:44.222: INFO: COM6 (GNSS) >> $HEHDT,324.49,T*17
09:09:44.222: INFO: COM6 (GNSS) >> $HEROT,-42.5,A*35
09:09:44.222: INFO: COM6 (GNSS) >> $GPGNS,060945.00,4830.0888442,N,04433.2396677,E,D,29,0.5,-0.554,3.763,5.0,0123,S*43
09:09:44.253: INFO: COM6 (GNSS) >> $GNGNS,060945.00,4830.0888442,N,04433.2396677,E,DDD,29,0.5,-0.554,3.763,,,S*76
09:09:44.253: INFO: COM6 (GNSS) >> $GPGNS,060945.00,,,,,,9,,,,5.0,0123,S*00
09:09:44.269: INFO: COM6 (GNSS) >> $GLGNS,060945.00,,,,,,7,,,,5.0,0123,S*12
09:09:44.300: INFO: COM6 (GNSS) >> $GAGNS,060945.00,,,,,,7,,,,5.0,0123,S*1F
09:09:44.300: INFO: COM6 (GNSS) >> $GPHEV,0.06,*54
09:09:44.300: INFO: COM6 (GNSS) >> $GPRMC,060945.00,A,4830.0888442,N,04433.2396677,E,0.29,93.99,080822,9.6,E,D,S*72
09:09:44.316: INFO: COM6 (GNSS) >> $HEHDT,324.58,T*17
09:09:44.396: INFO: COM6 (GNSS) >> $HEHDT,324.69,T*15
09:09:44.508: INFO: COM6 (GNSS) >> $HEHDT,324.81,T*13
09:09:44.604: INFO: COM6 (GNSS) >> $HEHDT,325.01,T*1A
09:09:44.700: INFO: COM6 (GNSS) >> $HEHDT,325.10,T*1A
09:09:44.796: INFO: COM6 (GNSS) >> $HEHDT,325.19,T*13
09:09:44.908: INFO: COM6 (GNSS) >> $HEHDT,325.32,T*1A
09:09:45.004: INFO: COM6 (GNSS) >> $HEHDT,325.48,T*17
09:09:45.100: INFO: COM6 (GNSS) >> $HEHDT,325.59,T*17
09:09:45.196: INFO: COM6 (GNSS) >> $HEHDT,325.72,T*1E
09:09:45.212: INFO: COM6 (GNSS) >> $HEROT,4.1,A*2E
09:09:45.243: INFO: COM6 (GNSS) >> $GPGNS,060946.00,4830.0888367,N,04433.2398101,E,D,29,0.5,-0.568,3.763,4.0,0123,S*46
09:09:45.243: INFO: COM6 (GNSS) >> $GNGNS,060946.00,4830.0888367,N,04433.2398101,E,DDD,29,0.5,-0.568,3.763,,,S*72
09:09:45.274: INFO: COM6 (GNSS) >> $GLGNS,060946.00,,,,,,7,,,,4.0,0123,S*10
09:09:45.274: INFO: COM6 (GNSS) >> $GPGNS,060946.00,,,,,,9,,,,4.0,0123,S*02
09:09:45.274: INFO: COM6 (GNSS) >> $GAGNS,060946.00,,,,,,7,,,,4.0,0123,S*1D
09:09:45.305: INFO: COM6 (GNSS) >> $HEHDT,325.86,T*15
09:09:45.305: INFO: COM6 (GNSS) >> $GPRMC,060946.00,A,4830.0888367,N,04433.2398101,E,0.36,98.38,080822,9.6,E,D,S*77
09:09:45.306: INFO: COM6 (GNSS) >> $GPHEV,0.04,*56
09:09:45.401: INFO: COM6 (GNSS) >> $HEHDT,326.06,T*1E
09:09:45.497: INFO: COM6 (GNSS) >> $HEHDT,326.15,T*1C
09:09:45.593: INFO: COM6 (GNSS) >> $HEHDT,326.24,T*1E
09:09:45.705: INFO: COM6 (GNSS) >> $HEHDT,326.29,T*13
09:09:45.801: INFO: COM6 (GNSS) >> $HEHDT,326.40,T*1C
09:09:45.897: INFO: COM6 (GNSS) >> $HEHDT,326.52,T*1F
09:09:45.993: INFO: COM6 (GNSS) >> $HEHDT,326.63,T*1D
09:09:46.105: INFO: COM6 (GNSS) >> $HEHDT,326.68,T*16
09:09:46.201: INFO: COM6 (GNSS) >> $HEHDT,326.75,T*1A
09:09:46.201: INFO: COM6 (GNSS) >> $HEROT,37.4,A*1B
09:09:46.233: INFO: COM6 (GNSS) >> $GPGNS,060947.00,4830.0888286,N,04433.2399539,E,D,29,0.5,-0.585,3.763,5.0,0123,S*45
09:09:46.264: INFO: COM6 (GNSS) >> $GNGNS,060947.00,4830.0888286,N,04433.2399539,E,DDD,29,0.5,-0.585,3.763,,,S*70
09:09:46.264: INFO: COM6 (GNSS) >> $GPGNS,060947.00,,,,,,9,,,,5.0,0123,S*02
09:09:46.264: INFO: COM6 (GNSS) >> $GLGNS,060947.00,,,,,,7,,,,5.0,0123,S*10
09:09:46.295: INFO: COM6 (GNSS) >> $GAGNS,060947.00,,,,,,7,,,,5.0,0123,S*1D
09:09:46.295: INFO: COM6 (GNSS) >> $GPRMC,060947.00,A,4830.0888286,N,04433.2399539,E,0.33,87.66,080822,9.6,E,D,S*76
09:09:46.311: INFO: COM6 (GNSS) >> $GPHEV,0.03,*51
09:09:46.311: INFO: COM6 (GNSS) >> $HEHDT,326.83,T*13
09:09:46.407: INFO: COM6 (GNSS) >> $HEHDT,326.91,T*10
09:09:46.503: INFO: COM6 (GNSS) >> $HEHDT,326.90,T*11
09:09:46.599: INFO: COM6 (GNSS) >> $HEHDT,326.89,T*19
09:09:46.695: INFO: COM6 (GNSS) >> $HEHDT,326.83,T*13
09:09:46.807: INFO: COM6 (GNSS) >> $HEHDT,326.70,T*1F
09:09:46.903: INFO: COM6 (GNSS) >> $HEHDT,326.61,T*1F
09:09:46.998: INFO: COM6 (GNSS) >> $HEHDT,326.55,T*18
09:09:47.094: INFO: COM6 (GNSS) >> $HEHDT,326.45,T*19
09:09:47.206: INFO: COM6 (GNSS) >> $HEHDT,326.30,T*1B
09:09:47.206: INFO: COM6 (GNSS) >> $HEROT,16.2,A*1E
09:09:47.237: INFO: COM6 (GNSS) >> $GPGNS,060948.00,4830.0888130,N,04433.2400693,E,D,29,0.5,-0.599,3.763,5.0,0123,S*4D
09:09:47.268: INFO: COM6 (GNSS) >> $GNGNS,060948.00,4830.0888130,N,04433.2400693,E,DDD,29,0.5,-0.599,3.763,,,S*78
09:09:47.268: INFO: COM6 (GNSS) >> $GLGNS,060948.00,,,,,,7,,,,5.0,0123,S*1F
09:09:47.268: INFO: COM6 (GNSS) >> $GPGNS,060948.00,,,,,,9,,,,5.0,0123,S*0D
09:09:47.299: INFO: COM6 (GNSS) >> $GAGNS,060948.00,,,,,,7,,,,5.0,0123,S*12
09:09:47.299: INFO: COM6 (GNSS) >> $GPRMC,060948.00,A,4830.0888130,N,04433.2400693,E,0.26,121.08,080822,9.6,E,D,S*42
09:09:47.299: INFO: COM6 (GNSS) >> $GPHEV,0.01,*53
09:09:47.315: INFO: COM6 (GNSS) >> $HEHDT,326.20,T*1A
09:09:47.396: INFO: COM6 (GNSS) >> $HEHDT,326.02,T*1A
09:09:47.508: INFO: COM6 (GNSS) >> $HEHDT,325.91,T*13
09:09:47.604: INFO: COM6 (GNSS) >> $HEHDT,325.72,T*1E
09:09:47.700: INFO: COM6 (GNSS) >> $HEHDT,325.48,T*17
09:09:47.796: INFO: COM6 (GNSS) >> $HEHDT,325.35,T*1D
09:09:47.907: INFO: COM6 (GNSS) >> $HEHDT,325.18,T*12
09:09:48.003: INFO: COM6 (GNSS) >> $HEHDT,324.98,T*1B
09:09:48.099: INFO: COM6 (GNSS) >> $HEHDT,324.75,T*18
09:09:48.196: INFO: COM6 (GNSS) >> $HEHDT,324.48,T*16
09:09:48.227: INFO: COM6 (GNSS) >> $GPGNS,060949.00,4830.0887822,N,04433.2401578,E,D,29,0.5,-0.613,3.763,5.0,0123,S*4F
09:09:48.227: INFO: COM6 (GNSS) >> $HEROT,-33.2,A*34
09:09:48.258: INFO: COM6 (GNSS) >> $GNGNS,060949.00,4830.0887822,N,04433.2401578,E,DDD,29,0.5,-0.613,3.763,,,S*7A
09:09:48.258: INFO: COM6 (GNSS) >> $GPGNS,060949.00,,,,,,9,,,,5.0,0123,S*0C
09:09:48.288: INFO: COM6 (GNSS) >> $GAGNS,060949.00,,,,,,7,,,,5.0,0123,S*13
09:09:48.288: INFO: COM6 (GNSS) >> $GLGNS,060949.00,,,,,,7,,,,5.0,0123,S*1E
09:09:48.320: INFO: COM6 (GNSS) >> $GPRMC,060949.00,A,4830.0887822,N,04433.2401578,E,0.21,116.38,080822,9.6,E,D,S*41
09:09:48.320: INFO: COM6 (GNSS) >> $GPHEV,-0.00,*7F
09:09:48.320: INFO: COM6 (GNSS) >> $HEHDT,324.25,T*1D
09:09:48.399: INFO: COM6 (GNSS) >> $HEHDT,323.98,T*1C
09:09:48.495: INFO: COM6 (GNSS) >> $HEHDT,323.77,T*1D
09:09:48.607: INFO: COM6 (GNSS) >> $HEHDT,323.45,T*1C
09:09:48.704: INFO: COM6 (GNSS) >> $HEHDT,323.23,T*1C
09:09:48.799: INFO: COM6 (GNSS) >> $HEHDT,323.04,T*19
09:09:48.895: INFO: COM6 (GNSS) >> $HEHDT,322.88,T*1C
09:09:49.007: INFO: COM6 (GNSS) >> $HEHDT,322.75,T*1E
09:09:49.103: INFO: COM6 (GNSS) >> $HEHDT,322.62,T*18
09:09:49.199: INFO: COM6 (GNSS) >> $HEHDT,322.47,T*1F
09:09:49.199: INFO: COM6 (GNSS) >> $HEROT,-60.9,A*39
09:09:49.230: INFO: COM6 (GNSS) >> $GPGNS,060950.00,4830.0887489,N,04433.2402450,E,D,29,0.5,-0.630,3.763,4.0,0123,S*42
09:09:49.261: INFO: COM6 (GNSS) >> $GNGNS,060950.00,4830.0887489,N,04433.2402450,E,DDD,29,0.5,-0.630,3.763,,,S*76
09:09:49.261: INFO: COM6 (GNSS) >> $GPGNS,060950.00,,,,,,9,,,,4.0,0123,S*05
09:09:49.292: INFO: COM6 (GNSS) >> $GLGNS,060950.00,,,,,,7,,,,4.0,0123,S*17
09:09:49.292: INFO: COM6 (GNSS) >> $GAGNS,060950.00,,,,,,7,,,,4.0,0123,S*1A
09:09:49.308: INFO: COM6 (GNSS) >> $GPRMC,060950.00,A,4830.0887489,N,04433.2402450,E,0.29,112.21,080822,9.6,E,D,S*48
09:09:49.308: INFO: COM6 (GNSS) >> $HEHDT,322.34,T*1B
09:09:49.308: INFO: COM6 (GNSS) >> $GPHEV,-0.02,*7D
09:09:49.404: INFO: COM6 (GNSS) >> $HEHDT,322.25,T*1B
09:09:49.500: INFO: COM6 (GNSS) >> $HEHDT,322.17,T*1A
09:09:49.596: INFO: COM6 (GNSS) >> $HEHDT,322.11,T*1C
09:09:49.708: INFO: COM6 (GNSS) >> $HEHDT,322.10,T*1D
09:09:49.804: INFO: COM6 (GNSS) >> $HEHDT,322.12,T*1F
09:09:49.900: INFO: COM6 (GNSS) >> $HEHDT,322.11,T*1C
09:09:49.996: INFO: COM6 (GNSS) >> $HEHDT,322.10,T*1D
09:09:50.108: INFO: COM6 (GNSS) >> $HEHDT,322.21,T*1F
09:09:50.204: INFO: COM6 (GNSS) >> $HEHDT,322.28,T*16
09:09:50.204: INFO: COM6 (GNSS) >> $HEROT,-32.1,A*36
09:09:50.220: INFO: COM6 (GNSS) >> $GPGNS,060951.00,4830.0887236,N,04433.2403663,E,D,29,0.5,-0.644,3.763,5.0,0123,S*40
09:09:50.251: INFO: COM6 (GNSS) >> $GNGNS,060951.00,4830.0887236,N,04433.2403663,E,DDD,29,0.5,-0.644,3.763,,,S*75
09:09:50.282: INFO: COM6 (GNSS) >> $GPGNS,060951.00,,,,,,9,,,,5.0,0123,S*05
09:09:50.282: INFO: COM6 (GNSS) >> $GLGNS,060951.00,,,,,,7,,,,5.0,0123,S*17
09:09:50.282: INFO: COM6 (GNSS) >> $GAGNS,060951.00,,,,,,7,,,,5.0,0123,S*1A
09:09:50.313: INFO: COM6 (GNSS) >> $GPRMC,060951.00,A,4830.0887236,N,04433.2403663,E,0.40,101.08,080822,9.6,E,D,S*4E
09:09:50.313: INFO: COM6 (GNSS) >> $GPHEV,-0.03,*7C
09:09:50.313: INFO: COM6 (GNSS) >> $HEHDT,322.40,T*18
09:09:50.393: INFO: COM6 (GNSS) >> $HEHDT,322.45,T*1D
09:09:50.505: INFO: COM6 (GNSS) >> $HEHDT,322.53,T*1A
09:09:50.601: INFO: COM6 (GNSS) >> $HEHDT,322.57,T*1E
09:09:50.697: INFO: COM6 (GNSS) >> $HEHDT,322.69,T*13
09:09:50.793: INFO: COM6 (GNSS) >> $HEHDT,322.82,T*16
09:09:50.905: INFO: COM6 (GNSS) >> $HEHDT,323.08,T*15
09:09:51.001: INFO: COM6 (GNSS) >> $HEHDT,323.34,T*1A
09:09:51.097: INFO: COM6 (GNSS) >> $HEHDT,323.59,T*11
09:09:51.194: INFO: COM6 (GNSS) >> $HEHDT,323.85,T*10
09:09:51.224: INFO: COM6 (GNSS) >> $HEROT,13.8,A*11
09:09:51.224: INFO: COM6 (GNSS) >> $GPGNS,060952.00,4830.0887017,N,04433.2405003,E,D,29,0.5,-0.642,3.763,5.0,0123,S*42
09:09:51.255: INFO: COM6 (GNSS) >> $GNGNS,060952.00,4830.0887017,N,04433.2405003,E,DDD,29,0.5,-0.642,3.763,,,S*77
09:09:51.255: INFO: COM6 (GNSS) >> $GPGNS,060952.00,,,,,,9,,,,5.0,0123,S*06
09:09:51.286: INFO: COM6 (GNSS) >> $GLGNS,060952.00,,,,,,7,,,,5.0,0123,S*14
09:09:51.286: INFO: COM6 (GNSS) >> $GAGNS,060952.00,,,,,,7,,,,5.0,0123,S*19
09:09:51.317: INFO: COM6 (GNSS) >> $GPRMC,060952.00,A,4830.0887017,N,04433.2405003,E,0.28,97.96,080822,9.6,E,D,S*7D
09:09:51.317: INFO: COM6 (GNSS) >> $HEHDT,324.19,T*12
09:09:51.317: INFO: COM6 (GNSS) >> $GPHEV,-0.03,*7C
09:09:51.396: INFO: COM6 (GNSS) >> $HEHDT,324.50,T*1F
09:09:51.493: INFO: COM6 (GNSS) >> $HEHDT,324.86,T*14
09:09:51.605: INFO: COM6 (GNSS) >> $HEHDT,325.19,T*13
09:09:51.701: INFO: COM6 (GNSS) >> $HEHDT,325.63,T*1E
09:09:51.796: INFO: COM6 (GNSS) >> $HEHDT,325.98,T*1A
09:09:51.893: INFO: COM6 (GNSS) >> $HEHDT,326.34,T*1F
09:09:52.005: INFO: COM6 (GNSS) >> $HEHDT,326.81,T*11
09:09:52.101: INFO: COM6 (GNSS) >> $HEHDT,327.16,T*1E
09:09:52.197: INFO: COM6 (GNSS) >> $HEHDT,327.48,T*15
09:09:52.228: INFO: COM6 (GNSS) >> $HEROT,93.7,A*16
09:09:52.228: INFO: COM6 (GNSS) >> $GPGNS,060953.00,4830.0887216,N,04433.2406294,E,D,29,0.5,-0.652,3.763,5.0,0123,S*4E
09:09:52.259: INFO: COM6 (GNSS) >> $GNGNS,060953.00,4830.0887216,N,04433.2406294,E,DDD,29,0.5,-0.652,3.763,,,S*7B
09:09:52.259: INFO: COM6 (GNSS) >> $GPGNS,060953.00,,,,,,9,,,,5.0,0123,S*07
09:09:52.290: INFO: COM6 (GNSS) >> $GLGNS,060953.00,,,,,,7,,,,5.0,0123,S*15
09:09:52.290: INFO: COM6 (GNSS) >> $GAGNS,060953.00,,,,,,7,,,,5.0,0123,S*18
09:09:52.306: INFO: COM6 (GNSS) >> $GPRMC,060953.00,A,4830.0887216,N,04433.2406294,E,0.24,62.50,080822,9.6,E,D,S*7C
09:09:52.306: INFO: COM6 (GNSS) >> $GPHEV,-0.04,*7B
09:09:52.306: INFO: COM6 (GNSS) >> $HEHDT,327.87,T*16
09:09:52.402: INFO: COM6 (GNSS) >> $HEHDT,328.17,T*10
09:09:52.497: INFO: COM6 (GNSS) >> $HEHDT,328.42,T*10
09:09:52.594: INFO: COM6 (GNSS) >> $HEHDT,328.56,T*15
09:09:52.705: INFO: COM6 (GNSS) >> $HEHDT,328.71,T*10
09:09:52.802: INFO: COM6 (GNSS) >> $HEHDT,328.74,T*15
09:09:52.898: INFO: COM6 (GNSS) >> $HEHDT,328.78,T*19
09:09:52.993: INFO: COM6 (GNSS) >> $HEHDT,328.64,T*14
09:09:53.106: INFO: COM6 (GNSS) >> $HEHDT,328.51,T*12
09:09:53.202: INFO: COM6 (GNSS) >> $HEHDT,328.30,T*15
09:09:53.202: INFO: COM6 (GNSS) >> $HEROT,73.2,A*1D
09:09:53.249: INFO: COM6 (GNSS) >> $GPGNS,060954.00,4830.0887471,N,04433.2406872,E,D,29,0.5,-0.663,3.763,4.0,0123,S*4F
09:09:53.249: INFO: COM6 (GNSS) >> $GNGNS,060954.00,4830.0887471,N,04433.2406872,E,DDD,29,0.5,-0.663,3.763,,,S*7B
09:09:53.280: INFO: COM6 (GNSS) >> $GPGNS,060954.00,,,,,,9,,,,4.0,0123,S*01
09:09:53.280: INFO: COM6 (GNSS) >> $GLGNS,060954.00,,,,,,7,,,,4.0,0123,S*13
09:09:53.280: INFO: COM6 (GNSS) >> $GAGNS,060954.00,,,,,,7,,,,4.0,0123,S*1E
09:09:53.310: INFO: COM6 (GNSS) >> $GPRMC,060954.00,A,4830.0887471,N,04433.2406872,E,0.02,313.04,080822,9.6,E,D,S*4E
09:09:53.310: INFO: COM6 (GNSS) >> $GPHEV,-0.05,*7A
09:09:53.310: INFO: COM6 (GNSS) >> $HEHDT,328.06,T*10
09:09:53.406: INFO: COM6 (GNSS) >> $HEHDT,327.77,T*19
09:09:53.503: INFO: COM6 (GNSS) >> $HEHDT,327.39,T*13
09:09:53.599: INFO: COM6 (GNSS) >> $HEHDT,326.97,T*16
09:09:53.695: INFO: COM6 (GNSS) >> $HEHDT,326.45,T*19
09:09:53.806: INFO: COM6 (GNSS) >> $HEHDT,326.00,T*18
09:09:53.902: INFO: COM6 (GNSS) >> $HEHDT,325.53,T*1D
09:09:53.999: INFO: COM6 (GNSS) >> $HEHDT,325.07,T*1C
09:09:54.094: INFO: COM6 (GNSS) >> $HEHDT,324.52,T*1D
09:09:54.206: INFO: COM6 (GNSS) >> $HEHDT,324.04,T*1E
09:09:54.206: INFO: COM6 (GNSS) >> $HEROT,-71.0,A*30
09:09:54.237: INFO: COM6 (GNSS) >> $GPGNS,060955.00,4830.0887494,N,04433.2406448,E,D,29,0.5,-0.680,3.763,5.0,0123,S*4C
09:09:54.268: INFO: COM6 (GNSS) >> $GPGNS,060955.00,,,,,,9,,,,5.0,0123,S*01
09:09:54.268: INFO: COM6 (GNSS) >> $GNGNS,060955.00,4830.0887494,N,04433.2406448,E,DDD,29,0.5,-0.680,3.763,,,S*79
09:09:54.268: INFO: COM6 (GNSS) >> $GLGNS,060955.00,,,,,,7,,,,5.0,0123,S*13
09:09:54.299: INFO: COM6 (GNSS) >> $GAGNS,060955.00,,,,,,7,,,,5.0,0123,S*1E
09:09:54.299: INFO: COM6 (GNSS) >> $GPRMC,060955.00,A,4830.0887494,N,04433.2406448,E,0.17,260.01,080822,9.6,E,D,S*45
09:09:54.299: INFO: COM6 (GNSS) >> $GPHEV,-0.06,*79
09:09:54.315: INFO: COM6 (GNSS) >> $HEHDT,323.49,T*10
09:09:54.395: INFO: COM6 (GNSS) >> $HEHDT,323.00,T*1D
09:09:54.508: INFO: COM6 (GNSS) >> $HEHDT,322.48,T*10
09:09:54.603: INFO: COM6 (GNSS) >> $HEHDT,322.02,T*1E
09:09:54.699: INFO: COM6 (GNSS) >> $HEHDT,321.60,T*19
09:09:54.795: INFO: COM6 (GNSS) >> $HEHDT,321.26,T*1B
09:09:54.907: INFO: COM6 (GNSS) >> $HEHDT,320.96,T*11
09:09:55.003: INFO: COM6 (GNSS) >> $HEHDT,320.68,T*10
09:09:55.099: INFO: COM6 (GNSS) >> $HEHDT,320.38,T*15
09:09:55.195: INFO: COM6 (GNSS) >> $HEHDT,320.15,T*1A
09:09:55.211: INFO: COM6 (GNSS) >> $HEROT,-133.0,A*07
09:09:55.242: INFO: COM6 (GNSS) >> $GPGNS,060956.00,4830.0887702,N,04433.2405832,E,D,29,0.5,-0.697,3.763,5.0,0123,S*47
09:09:55.242: INFO: COM6 (GNSS) >> $GNGNS,060956.00,4830.0887702,N,04433.2405832,E,DDD,29,0.5,-0.697,3.763,,,S*72
09:09:55.273: INFO: COM6 (GNSS) >> $GPGNS,060956.00,,,,,,9,,,,5.0,0123,S*02
09:09:55.273: INFO: COM6 (GNSS) >> $GLGNS,060956.00,,,,,,7,,,,5.0,0123,S*10
09:09:55.304: INFO: COM6 (GNSS) >> $GPRMC,060956.00,A,4830.0887702,N,04433.2405832,E,0.20,294.61,080822,9.6,E,D,S*41
09:09:55.304: INFO: COM6 (GNSS) >> $GAGNS,060956.00,,,,,,7,,,,5.0,0123,S*1D
09:09:55.304: INFO: COM6 (GNSS) >> $GPHEV,-0.07,*78
